created_at,tree_id,block_id,the_geom,tree_dbh,stump_diam,curb_loc,status,health,spc_latin,spc_common,steward,guards,sidewalk,user_type,problems,root_stone,root_grate,root_other,trnk_wire,trnk_light,trnk_other,brnch_ligh,brnch_shoe,brnch_othe,address,zipcode,zip_city,cb_num,borocode,boroname,cncldist,st_assem,st_senate,nta,nta_name,boro_ct,state,latitude,longitude,x_sp,y_sp
08/27/2015,180683,348711,POINT (-73.84421521958048 40.723091773924274),3,0,OnCurb,Alive,Fair,Acer rubrum,red maple,None,None,NoDamage,TreesCount Staff,None,No,No,No,No,No,No,No,No,No,108-005 70 AVENUE,11375,Forest Hills,406,4,Queens,29,28,16,QN17,Forest Hills,4073900,New York,40.72309177,-73.84421522,1027431.14821,202756.768749
09/03/2015,200540,315986,POINT (-73.81867945834878 40.79411066708779),21,0,OnCurb,Alive,Fair,Quercus palustris,pin oak,None,None,Damage,TreesCount Staff,Stones,Yes,No,No,No,No,No,No,No,No,147-074 7 AVENUE,11357,Whitestone,407,4,Queens,19,27,11,QN49,Whitestone,4097300,New York,40.79411067,-73.81867946,1034455.70109,228644.837379
09/05/2015,204026,218365,POINT (-73.93660770459083 40.717580740099116),3,0,OnCurb,Alive,Good,Gleditsia triacanthos var. inermis,honeylocust,1or2,None,Damage,Volunteer,None,No,No,No,No,No,No,No,No,No,390 MORGAN AVENUE,11211,Brooklyn,301,3,Brooklyn,34,50,18,BK90,East Williamsburg,3044900,New York,40.71758074,-73.9366077,1001822.83131,200716.891267
09/05/2015,204337,217969,POINT (-73.93445615919741 40.713537494833226),10,0,OnCurb,Alive,Good,Gleditsia triacanthos var. inermis,honeylocust,None,None,Damage,Volunteer,Stones,Yes,No,No,No,No,No,No,No,No,1027 GRAND STREET,11211,Brooklyn,301,3,Brooklyn,34,53,18,BK90,East Williamsburg,3044900,New York,40.71353749,-73.93445616,1002420.35833,199244.253136
08/30/2015,189565,223043,POINT (-73.97597938483258 40.66677775537875),21,0,OnCurb,Alive,Good,Tilia americana,American linden,None,None,Damage,Volunteer,Stones,Yes,No,No,No,No,No,No,No,No,603 6 STREET,11215,Brooklyn,306,3,Brooklyn,39,44,21,BK37,Park Slope-Gowanus,3016500,New York,40.66677776,-73.97597938,990913.775046,182202.425999
08/30/2015,190422,106099,POINT (-73.98494997200308 40.770045625891846),11,0,OnCurb,Alive,Good,Gleditsia triacanthos var. inermis,honeylocust,1or2,Helpful,NoDamage,Volunteer,None,No,No,No,No,No,No,No,No,No,8 COLUMBUS AVENUE,10023,New York,107,1,Manhattan,3,67,27,MN14,Lincoln Square,1014500,New York,40.77004563,-73.98494997,988418.699656,219825.522669
08/30/2015,190426,106099,POINT (-73.98533807200513 40.77020969000546),11,0,OnCurb,Alive,Good,Gleditsia triacanthos var. inermis,honeylocust,1or2,Helpful,NoDamage,Volunteer,None,No,No,No,No,No,No,No,No,No,120 WEST 60 STREET,10023,New York,107,1,Manhattan,3,67,27,MN14,Lincoln Square,1014500,New York,40.77020969,-73.98533807,988311.190028,219885.278455
09/07/2015,208649,103940,POINT (-73.98729652382876 40.7627238542921),9,0,OnCurb,Alive,Good,Tilia americana,American linden,None,None,NoDamage,Volunteer,MetalGrates,No,Yes,No,No,No,No,No,No,No,311 WEST 50 STREET,10019,New York,104,1,Manhattan,3,75,27,MN15,Clinton,1012700,New York,40.76272385,-73.98729652,987769.116309,217157.856088
09/08/2015,209610,407443,POINT (-74.07625483097186 40.596579313729144),6,0,OnCurb,Alive,Good,Gleditsia triacanthos var. inermis,honeylocust,None,None,NoDamage,TreesCount Staff,None,No,No,No,No,No,No,No,No,No,65 JEROME AVENUE,10305,Staten Island,502,5,Staten Island,50,64,23,SI14,Grasmere-Arrochar-Ft. Wadsworth,5006400,New York,40.59657931,-74.07625483,963073.199822,156635.554233
08/31/2015,192755,207508,POINT (-73.96974394191379 40.58635724735751),21,0,OffsetFromCurb,Alive,Fair,Platanus x acerifolia,London planetree,None,None,NoDamage,TreesCount Staff,None,No,No,No,No,No,No,No,No,No,638 AVENUE Z,11223,Brooklyn,313,3,Brooklyn,47,45,23,BK26,Gravesend,3037402,New York,40.58635725,-73.96974394,992653.725307,152903.630594
09/05/2015,203719,302371,POINT (-73.91117076849402 40.78242822973097),11,0,OnCurb,Alive,Good,Platanus x acerifolia,London planetree,None,None,NoDamage,Volunteer,None,No,No,No,No,No,No,No,No,No,20-025 24 STREET,11105,Astoria,401,4,Queens,22,36,13,QN72,Steinway,4010500,New York,40.78242823,-73.91117077,1008850.18504,224349.036588
09/05/2015,203726,302371,POINT (-73.91201956608866 40.78173511421239),8,0,OnCurb,Alive,Poor,Platanus x acerifolia,London planetree,None,None,NoDamage,Volunteer,None,No,No,No,No,No,No,No,No,No,20-055 24 STREET,11105,Astoria,401,4,Queens,22,36,13,QN72,Steinway,4010500,New York,40.78173511,-73.91201957,1008615.37449,224096.27397
09/01/2015,195202,415896,POINT (-74.16267038247524 40.55710259269471),13,0,OnCurb,Alive,Fair,Platanus x acerifolia,London planetree,None,None,NoDamage,TreesCount Staff,Stones,Yes,No,No,No,No,No,No,No,No,35 FENWAY CIRCLE,10308,Staten Island,503,5,Staten Island,51,62,24,SI54,Great Kills,5014607,New York,40.55710259,-74.16267038,939047.968345,142285.957932
08/30/2015,189465,219493,POINT (-73.96821054029427 40.69473313907219),22,0,OnCurb,Alive,Good,Platanus x acerifolia,London planetree,3or4,Harmful,NoDamage,Volunteer,RootOther,No,No,Yes,No,No,No,No,No,No,100 WAVERLY AVENUE,11205,Brooklyn,302,3,Brooklyn,35,50,25,BK69,Clinton Hill,3019100,New York,40.69473314,-73.96821054,993065.30388,192388.065077
08/31/2015,192998,211160,POINT (-73.92113023015189 40.664317398984245),30,0,OnCurb,Alive,Fair,Platanus x acerifolia,London planetree,1or2,None,Damage,Volunteer,"Stones,BranchOther",Yes,No,No,No,No,No,No,No,Yes,2126 UNION STREET,11212,Brooklyn,316,3,Brooklyn,41,55,20,BK81,Brownsville,3090000,New York,40.6643174,-73.92113023,1006130.77709,181314.985517
08/30/2015,189834,219505,POINT (-73.96760066006317 40.69331418041053),12,0,OnCurb,Alive,Good,Gleditsia triacanthos var. inermis,honeylocust,3or4,Helpful,NoDamage,Volunteer,None,No,No,No,No,No,No,No,No,No,449 MYRTLE AVENUE,11205,Brooklyn,302,3,Brooklyn,35,50,25,BK69,Clinton Hill,3019100,New York,40.69331418,-73.96760066,993234.616533,191871.15863
09/05/2015,204208,204913,POINT (-73.99159679617637 40.593787550585226),2,0,OnCurb,Alive,Fair,Ginkgo biloba,ginkgo,None,None,Damage,TreesCount Staff,None,No,No,No,No,No,No,No,No,No,8797 25 AVENUE,11214,Brooklyn,311,3,Brooklyn,47,47,23,BK29,Bensonhurst East,3030400,New York,40.59378755,-73.9915968,986583.759428,155609.338438
08/20/2015,161339,230864,POINT (-73.96452446822275 40.64878769169177),14,0,OnCurb,Alive,Good,Gleditsia triacanthos var. inermis,honeylocust,None,None,Damage,TreesCount Staff,None,No,No,No,No,No,No,No,No,No,1601 CHURCH AVENUE,11226,Brooklyn,314,3,Brooklyn,40,42,21,BK42,Flatbush,3051200,New York,40.64878769,-73.96452447,994094.240798,175649.224211
08/29/2015,187311,342816,POINT (-73.8652999186246 40.73764622495205),14,0,OnCurb,Alive,Fair,Gleditsia triacanthos var. inermis,honeylocust,1or2,None,NoDamage,Volunteer,"TrunkLights,BranchLights",No,No,No,No,Yes,No,Yes,No,No,55-026 96 STREET,11373,Elmhurst,404,4,Queens,21,35,13,QN25,Corona,4044302,New York,40.73764622,-73.86529992,1021578.64449,208049.712887
09/07/2015,208201,219258,POINT (-73.97258754060326 40.69149917038739),10,0,OnCurb,Alive,Good,Ginkgo biloba,ginkgo,1or2,Helpful,NoDamage,Volunteer,Stones,Yes,No,No,No,No,No,No,No,No,206 CARLTON AVENUE,11205,Brooklyn,302,3,Brooklyn,35,57,25,BK68,Fort Greene,3018300,New York,40.69149917,-73.97258754,991851.918511,191209.425046
08/31/2015,193093,225564,POINT (-73.98588943758692 40.66123875468547),11,0,OnCurb,Alive,Good,Gleditsia triacanthos var. inermis,honeylocust,None,None,NoDamage,Volunteer,None,No,No,No,No,No,No,No,No,No,367 PROSPECT AVENUE,11215,Brooklyn,307,3,Brooklyn,38,44,21,BK37,Park Slope-Gowanus,3014900,New York,40.66123875,-73.98588944,988164.863221,180183.813895
08/31/2015,193310,107600,POINT (-73.96045570742453 40.77217147708009),14,0,OnCurb,Alive,Good,Gleditsia triacanthos var. inermis,honeylocust,1or2,Unsure,Damage,Volunteer,"RootOther,TrunkOther,BranchOther",No,No,Yes,No,No,Yes,No,No,Yes,170 EAST 75 STREET,10021,New York,108,1,Manhattan,4,73,28,MN40,Upper East Side-Carnegie Hill,1012800,New York,40.77217148,-73.96045571,995203.003673,220602.155302
09/03/2015,199760,107038,POINT (-73.98096427881879 40.78208719997997),4,0,OnCurb,Alive,Fair,Quercus phellos,willow oak,None,None,NoDamage,TreesCount Staff,None,No,No,No,No,No,No,No,No,No,2163 BROADWAY,10024,New York,107,1,Manhattan,6,67,29,MN12,Upper West Side,1016300,New York,40.7820872,-73.98096428,989521.741413,224212.887582
09/05/2015,204325,415427,POINT (-74.13856340070123 40.56882124262724),9,0,OnCurb,Alive,Good,Acer pseudoplatanus,sycamore maple,None,None,NoDamage,Volunteer,BranchOther,No,No,No,No,No,No,No,No,Yes,301 THOMAS STREET,10306,Staten Island,503,5,Staten Island,50,62,24,SI25,Oakwood-Oakwood Beach,5013800,New York,40.56882124,-74.1385634,945753.443123,146543.824416
08/30/2015,189700,223525,POINT (-73.97218377293484 40.67483918746511),2,0,OnCurb,Alive,Good,Quercus phellos,willow oak,3or4,None,NoDamage,Volunteer,None,No,No,No,No,No,No,No,No,No,26 8 AVENUE,11217,Brooklyn,306,3,Brooklyn,39,52,21,BK37,Park Slope-Gowanus,3015900,New York,40.67483919,-73.97218377,991965.817234,185139.74624
09/05/2015,205044,206800,POINT (-73.98917142531711 40.594936285011926),5,0,OnCurb,Alive,Good,Acer ginnala,Amur maple,None,None,NoDamage,TreesCount Staff,Stones,Yes,No,No,No,No,No,No,No,No,134 BAY 40 STREET,11214,Brooklyn,311,3,Brooklyn,47,47,22,BK29,Bensonhurst East,3030200,New York,40.59493629,-73.98917143,987257.287937,156027.925527
08/31/2015,192942,310298,POINT (-73.82499154919253 40.706533516902155),33,0,OnCurb,Alive,Good,Platanus x acerifolia,London planetree,1or2,Helpful,NoDamage,TreesCount Staff,"Stones,BranchLights",Yes,No,No,No,No,No,Yes,No,No,84-036 127 STREET,11415,Kew Gardens,409,4,Queens,29,27,14,QN60,Kew Gardens,4013800,New York,40.70653352,-73.82499155,1032771.70019,196734.164652
09/01/2015,195265,227489,POINT (-73.97042747898412 40.61190461071703),19,0,OnCurb,Alive,Good,Platanus x acerifolia,London planetree,None,None,NoDamage,TreesCount Staff,None,No,No,No,No,No,No,No,No,No,401 AVENUE O,11230,Brooklyn,312,3,Brooklyn,44,48,22,BK46,Ocean Parkway South,3044000,New York,40.61190461,-73.97042748,992460.728317,162211.123462
09/04/2015,201555,102919,POINT (-73.98982976460587 40.72180744390711),9,0,OnCurb,Alive,Good,Gleditsia triacanthos var. inermis,honeylocust,None,None,NoDamage,NYC Parks Staff,None,No,No,No,No,No,No,No,No,No,71 STANTON STREET,10002,New York,103,1,Manhattan,1,65,26,MN27,Chinatown,1003601,New York,40.72180744,-73.98982976,987069.088838,202250.614249
09/07/2015,208407,345512,POINT (-73.91549691023117 40.708040124340584),9,0,OnCurb,Alive,Good,Gleditsia triacanthos var. inermis,honeylocust,None,None,Damage,Volunteer,"TrunkOther,BranchLights",No,No,No,No,No,Yes,Yes,No,No,1817 DE KALB AVENUE,11385,Ridgewood,405,4,Queens,34,37,12,QN20,Ridgewood,4053900,New York,40.70804012,-73.91549691,1007678.25727,197245.897225
08/30/2015,189164,223133,POINT (-73.98670281663865 40.668826466756094),7,0,OnCurb,Alive,Good,Gleditsia triacanthos var. inermis,honeylocust,None,None,NoDamage,Volunteer,None,No,No,No,No,No,No,No,No,No,456 5 AVENUE,11215,Brooklyn,306,3,Brooklyn,39,52,21,BK37,Park Slope-Gowanus,3013900,New York,40.66882647,-73.98670282,987938.778044,182948.195833
08/29/2015,184375,505172,POINT (-73.89338225682316 40.847947079185445),3,0,OnCurb,Alive,Good,Gleditsia triacanthos var. inermis,honeylocust,None,None,NoDamage,Volunteer,Stones,Yes,No,No,No,No,No,No,No,No,2022 LA FONTAINE AVENUE,10457,Bronx,206,2,Bronx,17,86,33,BX17,East Tremont,2037504,New York,40.84794708,-73.89338226,1013747.44263,248225.382208
08/29/2015,187056,106107,POINT (-73.98162670448419 40.77039612675352),7,0,OnCurb,Alive,Good,Gleditsia triacanthos var. inermis,honeylocust,1or2,Unsure,NoDamage,NYC Parks Staff,"MetalGrates,TrunkOther",No,Yes,No,No,No,Yes,No,No,No,1880 BROADWAY,10023,New York,107,1,Manhattan,6,75,27,MN14,Lincoln Square,1014900,New York,40.77039613,-73.9816267,989339.183051,219953.397413
08/29/2015,187058,106107,POINT (-73.98121826363523 40.77022714718968),5,0,OnCurb,Alive,Good,Gleditsia triacanthos var. inermis,honeylocust,1or2,Unsure,NoDamage,NYC Parks Staff,"MetalGrates,TrunkOther",No,Yes,No,No,No,Yes,No,No,No,1 WEST 62 STREET,10023,New York,107,1,Manhattan,6,75,27,MN14,Lincoln Square,1014900,New York,40.77022715,-73.98121826,989452.329478,219891.856526
08/26/2015,178659,406774,POINT (-74.08667826554655 40.58810729823054),4,0,OnCurb,Alive,Good,Gleditsia triacanthos var. inermis,honeylocust,None,None,NoDamage,TreesCount Staff,None,No,No,No,No,No,No,No,No,No,434 RARITAN AVENUE,10305,Staten Island,502,5,Staten Island,50,64,24,SI36,Old Town-Dongan Hills-South Beach,5007000,New York,40.5881073,-74.08667827,960175.444791,153551.677855
08/30/2015,190423,106099,POINT (-73.98504778619343 40.77008697533186),12,0,OnCurb,Alive,Good,Gleditsia triacanthos var. inermis,honeylocust,1or2,Helpful,NoDamage,Volunteer,None,No,No,No,No,No,No,No,No,No,120 WEST 60 STREET,10023,New York,107,1,Manhattan,3,67,27,MN14,Lincoln Square,1014500,New York,40.77008698,-73.98504779,988391.603582,219840.583006
08/30/2015,190425,106099,POINT (-73.98526928593986 40.77018061208424),13,0,OnCurb,Alive,Good,Gleditsia triacanthos var. inermis,honeylocust,1or2,Helpful,NoDamage,Volunteer,None,No,No,No,No,No,No,No,No,No,120 WEST 60 STREET,10023,New York,107,1,Manhattan,3,67,27,MN14,Lincoln Square,1014500,New York,40.77018061,-73.98526929,988330.24478,219874.687597
09/05/2015,204202,415447,POINT (-74.13906214676298 40.568825166867676),12,0,OnCurb,Alive,Fair,Platanus x acerifolia,London planetree,1or2,None,Damage,Volunteer,Stones,Yes,No,No,No,No,No,No,No,No,328 THOMAS STREET,10306,Staten Island,503,5,Staten Island,50,62,24,SI25,Oakwood-Oakwood Beach,5013800,New York,40.56882517,-74.13906215,945614.880736,146545.473691
09/04/2015,201494,406253,POINT (-74.11474623823968 40.578074056718314),24,0,OnCurb,Alive,Good,Platanus x acerifolia,London planetree,None,None,Damage,TreesCount Staff,Stones,Yes,No,No,No,No,No,No,No,No,6 ALLISON PLACE,10306,Staten Island,502,5,Staten Island,50,62,24,SI45,New Dorp-Midland Beach,5012200,New York,40.57807406,-74.11474624,952374.88887,149905.282917
09/07/2015,208346,106403,POINT (-73.97484010897847 40.78258673880227),20,0,OffsetFromCurb,Alive,Good,Platanus x acerifolia,London planetree,1or2,None,NoDamage,Volunteer,None,No,No,No,No,No,No,No,No,No,418 COLUMBUS AVENUE,10024,New York,107,1,Manhattan,6,67,29,MN12,Upper West Side,1016500,New York,40.78258674,-73.97484011,991217.713087,224395.314382
08/28/2015,181710,207966,POINT (-73.95246689847255 40.575205295811905),13,0,OnCurb,Alive,Good,Quercus phellos,willow oak,None,None,NoDamage,NYC Parks Staff,None,No,No,No,No,No,No,No,No,No,267 WEST END AVENUE,11235,Brooklyn,315,3,Brooklyn,48,45,22,BK17,Sheepshead Bay-Gerritsen Beach-Manhattan Beach,3061600,New York,40.5752053,-73.9524669,997454.688474,148842.827692
08/26/2015,178382,106001,POINT (-73.97705764351917 40.73371649944506),12,0,OnCurb,Alive,Fair,Platanus x acerifolia,London planetree,None,None,NoDamage,TreesCount Staff,None,No,No,No,No,No,No,No,No,No,520 EAST 20 STREET,10009,New York,106,1,Manhattan,4,74,27,MN50,Stuyvesant Town-Cooper Village,1006000,New York,40.7337165,-73.97705764,990608.258269,206590.122303
09/01/2015,193690,227528,POINT (-73.97453013858579 40.61366258454641),36,0,OnCurb,Alive,Good,Platanus x acerifolia,London planetree,None,None,Damage,TreesCount Staff,Stones,Yes,No,No,No,No,No,No,No,No,6018 24 AVENUE,11230,Brooklyn,312,3,Brooklyn,44,48,17,BK46,Ocean Parkway South,3044000,New York,40.61366258,-73.97453014,991321.450084,162851.241277
09/02/2015,196089,310255,POINT (-73.82768034198298 40.70404651889878),29,0,OnCurb,Alive,Good,Platanus x acerifolia,London planetree,None,None,Damage,TreesCount Staff,Stones,Yes,No,No,No,No,No,No,No,No,84-037 124 STREET,11415,Kew Gardens,409,4,Queens,29,27,14,QN60,Kew Gardens,4014000,New York,40.70404652,-73.82768034,1032028.00647,195826.600523
08/31/2015,191988,102326,POINT (-73.99936835831562 40.726639575307196),6,0,OnCurb,Alive,Good,Quercus phellos,willow oak,1or2,None,NoDamage,TreesCount Staff,None,No,No,No,No,No,No,No,No,No,73 WEST HOUSTON STREET,10012,New York,102,1,Manhattan,1,66,26,MN24,SoHo-TriBeCa-Civic Center-Little Italy,1004900,New York,40.72663958,-73.99936836,984425.072145,204010.946031
09/05/2015,203720,302371,POINT (-73.91127902288238 40.78233983248895),9,0,OnCurb,Alive,Good,Platanus x acerifolia,London planetree,None,None,NoDamage,Volunteer,None,No,No,No,No,No,No,No,No,No,20-025 24 STREET,11105,Astoria,401,4,Queens,22,36,13,QN72,Steinway,4010500,New York,40.78233983,-73.91127902,1008820.23792,224316.800104
08/30/2015,189339,219520,POINT (-73.9663797202686 40.695280682555044),18,0,OffsetFromCurb,Alive,Good,Platanus x acerifolia,London planetree,None,None,NoDamage,Volunteer,None,No,No,No,No,No,No,No,No,No,79 HALL STREET,11205,Brooklyn,302,3,Brooklyn,35,50,25,BK69,Clinton Hill,3019100,New York,40.69528068,-73.96637972,993572.918678,192587.740859
09/07/2015,208230,106402,POINT (-73.97238976811065 40.78218110151048),13,0,OffsetFromCurb,Alive,Fair,Platanus x acerifolia,London planetree,1or2,None,NoDamage,Volunteer,TrunkOther,No,No,No,No,No,Yes,No,No,No,1 WEST 81 STREET,10024,New York,107,1,Manhattan,6,67,29,MN12,Upper West Side,1016500,New York,40.7821811,-73.97238977,991896.350509,224247.731344
09/05/2015,204413,204940,POINT (-73.99380070218072 40.59393169321807),13,0,OnCurb,Alive,Good,Quercus phellos,willow oak,None,None,NoDamage,TreesCount Staff,None,No,No,No,No,No,No,No,No,No,2435 HARWAY AVENUE,11214,Brooklyn,311,3,Brooklyn,47,47,23,BK29,Bensonhurst East,3030400,New York,40.59393169,-73.9938007,985971.681256,155661.802243
08/20/2015,161193,409065,POINT (-74.14804001171058 40.5858495229097),9,0,OnCurb,Alive,Good,Quercus phellos,willow oak,None,None,NoDamage,Volunteer,TrunkOther,No,No,No,No,No,Yes,No,No,No,86 BOGOTA STREET,10314,Staten Island,502,5,Staten Island,50,63,24,SI24,Todt Hill-Emerson Hill-Heartland Village-Lighthous,5027704,New York,40.58584952,-74.14804001,943131.078289,152751.948155
09/02/2015,196132,206122,POINT (-73.97671634831147 40.61293798189811),19,0,OnCurb,Alive,Good,Platanus x acerifolia,London planetree,None,None,NoDamage,TreesCount Staff,None,No,No,No,No,No,No,No,No,No,2347 63 STREET,11204,Brooklyn,311,3,Brooklyn,44,48,17,BK29,Bensonhurst East,3043600,New York,40.61293798,-73.97671635,990714.541193,162587.080716
09/02/2015,196223,310465,POINT (-73.82720922149184 40.714909971907666),17,0,OnCurb,Alive,Fair,Platanus x acerifolia,London planetree,None,None,Damage,TreesCount Staff,None,No,No,No,No,No,No,No,No,No,80-025 126 STREET,11415,Kew Gardens,409,4,Queens,29,27,14,QN60,Kew Gardens,4021600,New York,40.71490997,-73.82720922,1032150.82381,199784.734011
08/31/2015,192888,210568,POINT (-73.94863403031965 40.6100347683596),32,0,OnCurb,Alive,Fair,Platanus x acerifolia,London planetree,None,None,NoDamage,TreesCount Staff,"Stones,BranchLights",Yes,No,No,No,No,No,Yes,No,No,3778 BEDFORD AVENUE,11229,Brooklyn,315,3,Brooklyn,48,41,17,BK44,Madison,3054800,New York,40.61003477,-73.94863403,998512.017724,161532.686827
08/31/2015,192890,210568,POINT (-73.94861132582527 40.60991607577651),28,0,OnCurb,Alive,Good,Platanus x acerifolia,London planetree,None,None,NoDamage,TreesCount Staff,"Stones,WiresRope",Yes,No,No,Yes,No,No,No,No,No,3782 BEDFORD AVENUE,11229,Brooklyn,315,3,Brooklyn,48,41,17,BK44,Madison,3054800,New York,40.60991608,-73.94861133,998518.347107,161489.44774
09/02/2015,197978,310798,POINT (-73.80826025712618 40.74068683597206),7,0,OnCurb,Alive,Good,Quercus palustris,pin oak,1or2,Helpful,Damage,TreesCount Staff,None,No,No,No,No,No,No,No,No,No,160-001 59 AVENUE,11365,Fresh Meadows,407,4,Queens,20,25,16,QN62,Queensboro Hill,4121500,New York,40.74068684,-73.80826026,1037383.26544,209186.954379
08/26/2015,178601,410841,POINT (-74.15618059801685 40.53211312776527),10,0,OnCurb,Alive,Fair,Quercus palustris,pin oak,None,None,NoDamage,TreesCount Staff,BranchLights,No,No,No,No,No,No,Yes,No,No,229 HALES AVENUE,10312,Staten Island,503,5,Staten Island,51,62,24,SI01,Annadale-Huguenot-Prince's Bay-Eltingville,5015602,New York,40.53211313,-74.1561806,940835.082881,133178.433168
08/29/2015,184317,505563,POINT (-73.89097860617149 40.856774471838726),5,0,OnCurb,Alive,Good,Quercus palustris,pin oak,None,None,NoDamage,Volunteer,Stones,Yes,No,No,No,No,No,No,No,No,4634 3 AVENUE,10458,Bronx,206,2,Bronx,15,78,33,BX06,Belmont,2038700,New York,40.85677447,-73.89097861,1014408.44656,251442.35412
08/29/2015,184031,504204,POINT (-73.90356057731171 40.85091786024071),3,0,OnCurb,Alive,Good,Acer rubrum,red maple,1or2,None,NoDamage,TreesCount Staff,None,No,No,No,No,No,No,No,No,No,223 EAST 179 STREET,10457,Bronx,205,2,Bronx,15,86,33,BX41,Mount Hope,2023502,New York,40.85091786,-73.90356058,1010930.2629,249304.486021
09/03/2015,200225,106629,POINT (-73.97721168704322 40.78993606612256),8,0,OnCurb,Alive,Good,Quercus palustris,pin oak,1or2,Harmful,NoDamage,Volunteer,None,No,No,No,No,No,No,No,No,No,565 WEST END AVENUE,10024,New York,107,1,Manhattan,6,67,31,MN12,Upper West Side,1017500,New York,40.78993607,-73.97721169,990560.238024,227072.745707
09/08/2015,208974,414958,POINT (-74.1065349443613 40.5610324289115),10,0,OnCurb,Alive,Good,Acer rubrum,red maple,None,None,NoDamage,TreesCount Staff,None,No,No,No,No,No,No,No,No,No,227 FINLEY AVENUE,10306,Staten Island,503,5,Staten Island,50,64,24,SI25,Oakwood-Oakwood Beach,5012806,New York,40.56103243,-74.10653494,954648.334454,143693.722505
09/02/2015,198146,411699,POINT (-74.19255286874332 40.539369387860575),6,0,OnCurb,Alive,Good,Acer rubrum,red maple,None,None,Damage,TreesCount Staff,Stones,Yes,No,No,No,No,No,No,No,No,189 NIPPON AVENUE,10312,Staten Island,503,5,Staten Island,51,62,24,SI48,Arden Heights,5017009,New York,40.53936939,-74.19255287,930730.183472,135842.179153
09/01/2015,194505,341521,POINT (-73.88725059080657 40.75902778398188),2,0,OnCurb,Dead,,,,,,,TreesCount Staff,,No,No,No,No,No,No,No,No,No,80-018 31 AVENUE,11370,East Elmhurst,403,4,Queens,25,34,13,QN28,Jackson Heights,4030903,New York,40.75902778,-73.88725059,1015485.56022,215831.103492
09/02/2015,198121,104405,POINT (-73.98253014634868 40.745033994065416),8,0,OnCurb,Alive,Fair,Quercus palustris,pin oak,None,None,Damage,Volunteer,"Stones,BranchOther",Yes,No,No,No,No,No,No,No,Yes,100 EAST 31 STREET,10016,New York,105,1,Manhattan,2,75,28,MN20,Murray Hill-Kips Bay,1007200,New York,40.74503399,-73.98253015,989090.783286,210713.094044
09/01/2015,195252,102084,POINT (-73.99985934610353 40.7359998531807),5,0,OnCurb,Alive,Good,Quercus palustris,pin oak,None,None,NoDamage,Volunteer,None,No,No,No,No,No,No,No,No,No,138 WEST 11 STREET,10011,New York,102,1,Manhattan,3,66,27,MN23,West Village,1007100,New York,40.73599985,-73.99985935,984288.979569,207421.187242
09/05/2015,204355,415383,POINT (-74.13823191471243 40.56785426360856),5,0,OnCurb,Alive,Good,Acer campestre,hedge maple,1or2,Helpful,NoDamage,NYC Parks Staff,None,No,No,No,No,No,No,No,No,No,89 WEST CEDARVIEW AVENUE,10306,Staten Island,503,5,Staten Island,50,62,24,SI25,Oakwood-Oakwood Beach,5013800,New York,40.56785426,-74.13823191,945844.982638,146191.385161
09/06/2015,205759,301278,POINT (-73.89540540519324 40.76686765057031),26,0,OnCurb,Alive,Good,Quercus palustris,pin oak,None,None,NoDamage,Volunteer,None,No,No,No,No,No,No,No,No,No,22-048 74 STREET,11370,East Elmhurst,401,4,Queens,22,36,13,QN72,Steinway,4031700,New York,40.76686765,-73.89540541,1013222.97977,218684.620095
09/04/2015,201654,224121,POINT (-74.00410729319515 40.6819432732001),10,0,OnCurb,Alive,Good,Quercus palustris,pin oak,1or2,None,NoDamage,Volunteer,None,No,No,No,No,No,No,No,No,No,299 COLUMBIA STREET,11231,Brooklyn,306,3,Brooklyn,39,52,26,BK33,Carroll Gardens-Columbia Street-Red Hook,3005100,New York,40.68194327,-74.00410729,983110.817883,187726.770594
09/02/2015,198514,108318,POINT (-73.96207980385901 40.80230108588602),18,0,OnCurb,Alive,Good,Quercus palustris,pin oak,None,None,NoDamage,Volunteer,Stones,Yes,No,No,No,No,No,No,No,No,1 MORNINGSIDE DRIVE,10025,New York,109,1,Manhattan,7,69,30,MN09,Morningside Heights,1019701,New York,40.80230109,-73.9620798,994748.408453,231579.203558
09/04/2015,203334,340820,POINT (-73.88730078404606 40.75088939064141),11,0,OnCurb,Alive,Fair,Platanus x acerifolia,London planetree,None,None,NoDamage,Volunteer,TrunkOther,No,No,No,No,No,Yes,No,No,No,35-021 79 STREET,11372,Jackson Heights,403,4,Queens,25,39,13,QN28,Jackson Heights,4028500,New York,40.75088939,-73.88730078,1015475.46969,212866.007061
09/03/2015,200628,315984,POINT (-73.81946649097343 40.79313800420383),25,0,OnCurb,Alive,Good,Platanus x acerifolia,London planetree,None,None,Damage,TreesCount Staff,Stones,Yes,No,No,No,No,No,No,No,No,147-043 8 AVENUE,11357,Whitestone,407,4,Queens,19,27,11,QN49,Whitestone,4097300,New York,40.793138,-73.81946649,1034238.5109,228290.013286
08/29/2015,186888,506316,POINT (-73.88088626637622 40.87343705714923),15,0,OnCurb,Alive,Fair,Platanus x acerifolia,London planetree,None,None,NoDamage,Volunteer,None,No,No,No,No,No,No,No,No,No,249 EAST MOSHOLU PARKWAY NORTH,10467,Bronx,207,2,Bronx,11,80,36,BX43,Norwood,2041900,New York,40.87343706,-73.88088627,1017192.02072,257516.8131
09/02/2015,196373,103300,POINT (-73.99157274737178 40.716805385067346),13,0,OnCurb,Alive,Good,Platanus x acerifolia,London planetree,1or2,None,NoDamage,TreesCount Staff,None,No,No,No,No,No,No,No,No,No,54 ALLEN STREET,10002,New York,103,1,Manhattan,1,65,26,MN27,Chinatown,1001600,New York,40.71680539,-73.99157275,986586.126549,200428.159561
09/08/2015,209441,503960,POINT (-73.91763219387903 40.846375825268666),5,0,OnCurb,Alive,Poor,Ulmus americana,American elm,None,None,NoDamage,TreesCount Staff,Stones,Yes,No,No,No,No,No,No,No,No,75 FEATHERBED LANE,10453,Bronx,205,2,Bronx,14,77,29,BX36,University Heights-Morris Heights,2021502,New York,40.84637583,-73.91763219,1007038.86419,247645.677987
09/06/2015,206435,210654,POINT (-73.96280534088122 40.59078485715291),26,0,OnCurb,Alive,Good,Acer pseudoplatanus,sycamore maple,None,None,Damage,Volunteer,None,No,No,No,No,No,No,No,No,No,2438 EAST 7 STREET,11235,Brooklyn,315,3,Brooklyn,48,45,22,BK19,Brighton Beach,3037000,New York,40.59078486,-73.96280534,994580.260824,154517.462341
09/02/2015,196080,310272,POINT (-73.82819499212432 40.704944499331496),36,0,OnCurb,Alive,Good,Platanus x acerifolia,London planetree,None,None,NoDamage,TreesCount Staff,"Stones,BranchLights",Yes,No,No,No,No,No,Yes,No,No,84-006 124 STREET,11415,Kew Gardens,409,4,Queens,29,27,14,QN60,Kew Gardens,4014000,New York,40.7049445,-73.82819499,1031884.67112,196153.480774
09/05/2015,203759,302373,POINT (-73.91209530143406 40.78075206758672),16,0,OnCurb,Alive,Good,Platanus x acerifolia,London planetree,None,None,Damage,Volunteer,None,No,No,No,No,No,No,No,No,No,24-015 21 AVENUE,11105,Astoria,401,4,Queens,22,36,13,QN72,Steinway,4010500,New York,40.78075207,-73.9120953,1008594.7597,223738.095881
08/30/2015,190359,107635,POINT (-73.95894425967109 40.77222448155208),13,0,OnCurb,Alive,Fair,Platanus x acerifolia,London planetree,None,None,Damage,Volunteer,"RootOther,TrunkOther,BranchOther",No,No,Yes,No,No,Yes,No,No,Yes,1326 3 AVENUE,10021,New York,108,1,Manhattan,4,73,28,MN40,Upper East Side-Carnegie Hill,1012800,New York,40.77222448,-73.95894426,995621.636366,220621.6592
09/08/2015,209909,504038,POINT (-73.90688618113626 40.848106229042735),2,0,OnCurb,Alive,Good,Ulmus americana,American elm,None,None,NoDamage,Volunteer,None,No,No,No,No,No,No,No,No,No,1840 GRAND CONCOURSE,10457,Bronx,205,2,Bronx,15,86,33,BX41,Mount Hope,2023302,New York,40.84810623,-73.90688618,1010011.31362,248279.107166
08/27/2015,180295,106100,POINT (-73.9829175035826 40.77013008975271),2,0,OnCurb,Alive,Good,Ulmus americana,American elm,1or2,None,NoDamage,Volunteer,"WiresRope,BranchOther",No,No,No,Yes,No,No,No,No,Yes,13 WEST 61 STREET,10023,New York,107,1,Manhattan,3,67,27,MN14,Lincoln Square,1014500,New York,40.77013009,-73.9829175,988981.66605,219856.39892
09/07/2015,208373,106403,POINT (-73.97558535494926 40.781617201031025),4,0,OnCurb,Alive,Good,Platanus x acerifolia,London planetree,1or2,Helpful,NoDamage,Volunteer,None,No,No,No,No,No,No,No,No,No,390 COLUMBUS AVENUE,10024,New York,107,1,Manhattan,6,67,29,MN12,Upper West Side,1016500,New York,40.7816172,-73.97558535,991011.425114,224042.02047
09/02/2015,196205,206082,POINT (-73.97682017943663 40.612880643288754),22,0,OnCurb,Alive,Good,Platanus x acerifolia,London planetree,None,None,NoDamage,TreesCount Staff,None,No,No,No,No,No,No,No,No,No,2348 63 STREET,11204,Brooklyn,311,3,Brooklyn,44,48,17,BK29,Bensonhurst East,3043600,New York,40.61288064,-73.97682018,990685.718744,162566.18312
08/31/2015,192086,203718,POINT (-74.03492842818125 40.62140476357093),28,0,OnCurb,Alive,Good,Platanus x acerifolia,London planetree,None,None,Damage,TreesCount Staff,Stones,Yes,No,No,No,No,No,No,No,No,8923 RIDGE BOULEVARD,11209,Brooklyn,310,3,Brooklyn,43,46,22,BK31,Bay Ridge,3005201,New York,40.62140476,-74.03492843,974553.599105,165672.825528
09/04/2015,203550,348013,POINT (-73.85444599003124 40.71316968515154),42,0,OnCurb,Alive,Good,Platanus x acerifolia,London planetree,None,None,NoDamage,Volunteer,"Stones,BranchLights",Yes,No,No,No,No,No,Yes,No,No,90-008 69 AVENUE,11375,Forest Hills,406,4,Queens,29,28,15,QN17,Forest Hills,4072900,New York,40.71316969,-73.85444599,1024601.34514,199136.975464
09/05/2015,203718,302371,POINT (-73.9110256109311 40.78254676160222),12,0,OnCurb,Alive,Good,Platanus x acerifolia,London planetree,None,None,NoDamage,Volunteer,None,No,No,No,No,No,No,No,No,No,20-015 24 STREET,11105,Astoria,401,4,Queens,22,36,13,QN72,Steinway,4010500,New York,40.78254676,-73.91102561,1008890.3408,224392.262551
09/08/2015,208832,220174,POINT (-73.9614226506213 40.69227839545721),3,0,OnCurb,Alive,Poor,Platanus x acerifolia,London planetree,None,None,NoDamage,Volunteer,"RootOther,BranchOther",No,No,Yes,No,No,No,No,No,Yes,237 WILLOUGHBY AVENUE,11205,Brooklyn,302,3,Brooklyn,35,57,25,BK69,Clinton Hill,3019300,New York,40.6922784,-73.96142265,994947.997949,191494.485827
08/31/2015,193183,348404,POINT (-73.83829721619878 40.7170323149707),3,0,OnCurb,Alive,Good,Acer ginnala,Amur maple,None,None,NoDamage,Volunteer,None,No,No,No,No,No,No,No,No,No,75-009 AUSTIN STREET,11375,Forest Hills,406,4,Queens,29,28,15,QN17,Forest Hills,4076901,New York,40.71703231,-73.83829722,1029075.60128,200552.098289
09/04/2015,203577,348022,POINT (-73.85501987714406 40.7124796096016),26,0,OnCurb,Alive,Good,Platanus x acerifolia,London planetree,1or2,Unsure,Damage,Volunteer,"Stones,BranchLights",Yes,No,No,No,No,No,Yes,No,No,89-003 69 AVENUE,11375,Forest Hills,406,4,Queens,29,28,15,QN17,Forest Hills,4070700,New York,40.71247961,-73.85501988,1024442.66501,198885.296505
08/27/2015,179477,223106,POINT (-73.98073049257751 40.66823129823416),3,0,OnCurb,Alive,Poor,Platanus x acerifolia,London planetree,3or4,Helpful,NoDamage,Volunteer,None,No,No,No,No,No,No,No,No,No,290 7 AVENUE,11215,Brooklyn,306,3,Brooklyn,39,52,21,BK37,Park Slope-Gowanus,3015300,New York,40.6682313,-73.98073049,989595.611016,182731.667067
09/04/2015,203386,347979,POINT (-73.85213797272486 40.71264110335946),26,0,OnCurb,Alive,Good,Platanus x acerifolia,London planetree,1or2,None,Damage,Volunteer,"Stones,BranchLights",Yes,No,No,No,No,No,Yes,No,No,92-018 70 AVENUE,11375,Forest Hills,406,4,Queens,29,28,15,QN17,Forest Hills,4072900,New York,40.7126411,-73.85213797,1025241.51184,198945.468957
08/30/2015,189537,223141,POINT (-73.97325312578212 40.66903950319261),18,0,OnCurb,Alive,Good,Platanus x acerifolia,London planetree,1or2,Helpful,NoDamage,Volunteer,None,No,No,No,No,No,No,No,No,No,53 PROSPECT PARK WEST,11215,Brooklyn,306,3,Brooklyn,39,52,21,BK37,Park Slope-Gowanus,3016500,New York,40.6690395,-73.97325313,991669.839479,183026.663852
09/02/2015,196130,206122,POINT (-73.97721789744 40.61324054313011),24,0,OnCurb,Alive,Good,Platanus x acerifolia,London planetree,None,None,Damage,TreesCount Staff,"Stones,WiresRope",Yes,No,No,Yes,No,No,No,No,No,2327 63 STREET,11204,Brooklyn,311,3,Brooklyn,44,48,17,BK29,Bensonhurst East,3043600,New York,40.61324054,-73.9772179,990575.26096,162697.275049
09/03/2015,200676,229928,POINT (-73.96044297686721 40.62480755663272),32,0,OnCurb,Alive,Good,Platanus x acerifolia,London planetree,None,None,Damage,TreesCount Staff,Stones,Yes,No,No,No,No,No,No,No,No,1020 EAST 16 STREET,11230,Brooklyn,314,3,Brooklyn,44,48,17,BK43,Midwood,3053200,New York,40.62480756,-73.96044298,995230.774614,166913.099295
09/06/2015,206326,301258,POINT (-73.89249204770594 40.76679522573525),13,0,OnCurb,Alive,Good,Platanus x acerifolia,London planetree,None,None,Damage,Volunteer,None,No,No,No,No,No,No,No,No,No,22-058 77 STREET,11370,East Elmhurst,401,4,Queens,22,36,13,QN72,Steinway,4031700,New York,40.76679523,-73.89249205,1014030.0195,218659.210369
09/05/2015,204118,415444,POINT (-74.14007848548106 40.56872513256854),11,0,OnCurb,Alive,Good,Platanus x acerifolia,London planetree,1or2,None,NoDamage,NYC Parks Staff,None,No,No,No,No,No,No,No,No,No,125 WEST CEDARVIEW AVENUE,10306,Staten Island,503,5,Staten Island,50,62,24,SI25,Oakwood-Oakwood Beach,5013800,New York,40.56872513,-74.14007849,945332.457088,146509.478685
08/31/2015,192653,207574,POINT (-73.96632142166791 40.58802013648723),22,0,OnCurb,Alive,Good,Platanus x acerifolia,London planetree,None,None,NoDamage,TreesCount Staff,None,No,No,No,No,No,No,No,No,No,2536 OCEAN PARKWAY,11223,Brooklyn,313,3,Brooklyn,47,46,23,BK26,Gravesend,3037401,New York,40.58802014,-73.96632142,993604.109233,153509.809828
09/04/2015,203592,348060,POINT (-73.85445969770379 40.7133838901074),38,0,OnCurb,Alive,Good,Platanus x acerifolia,London planetree,None,None,NoDamage,Volunteer,"Stones,BranchLights",Yes,No,No,No,No,No,Yes,No,No,90-013 69 AVENUE,11375,Forest Hills,406,4,Queens,29,28,15,QN17,Forest Hills,4070700,New York,40.71338389,-73.8544597,1024597.41536,199215.010412
08/30/2015,189338,219520,POINT (-73.9663647807708 40.6952057852503),18,0,OffsetFromCurb,Alive,Good,Platanus x acerifolia,London planetree,None,None,NoDamage,Volunteer,Stones,Yes,No,No,No,No,No,No,No,No,88 HALL STREET,11205,Brooklyn,302,3,Brooklyn,35,50,25,BK69,Clinton Hill,3019100,New York,40.69520579,-73.96636478,993577.071885,192560.455152
09/07/2015,208240,106402,POINT (-73.97276285920823 40.78233866823086),2,0,OffsetFromCurb,Alive,Good,Platanus x acerifolia,London planetree,1or2,None,NoDamage,Volunteer,None,No,No,No,No,No,No,No,No,No,11 WEST 81 STREET,10024,New York,107,1,Manhattan,6,67,29,MN12,Upper West Side,1016500,New York,40.78233867,-73.97276286,991793.00918,224305.105901
09/07/2015,208247,106402,POINT (-73.97308772691781 40.78250569576515),29,0,OnCurb,Alive,Fair,Ulmus americana,American elm,1or2,Helpful,NoDamage,Volunteer,None,No,No,No,No,No,No,No,No,No,15 WEST 81 STREET,10024,New York,107,1,Manhattan,6,67,29,MN12,Upper West Side,1016500,New York,40.7825057,-73.97308773,991703.022156,224365.931895
09/05/2015,204203,415447,POINT (-74.1391287419038 40.56873093262929),11,0,OnCurb,Alive,Fair,Platanus x acerifolia,London planetree,1or2,None,Damage,Volunteer,"Stones,BranchOther",Yes,No,No,No,No,No,No,No,Yes,328 THOMAS STREET,10306,Staten Island,503,5,Staten Island,50,62,24,SI25,Oakwood-Oakwood Beach,5013800,New York,40.56873093,-74.13912874,945596.324343,146511.171267
09/04/2015,203385,347979,POINT (-73.85210322557508 40.71269661040168),23,0,OnCurb,Alive,Good,Platanus x acerifolia,London planetree,1or2,None,Damage,Volunteer,"Stones,BranchLights",Yes,No,No,No,No,No,Yes,No,No,92-018 70 AVENUE,11375,Forest Hills,406,4,Queens,29,28,15,QN17,Forest Hills,4072900,New York,40.71269661,-73.85210323,1025251.11057,198965.70809
09/02/2015,196372,103300,POINT (-73.99153287193579 40.71688340954114),12,0,OnCurb,Alive,Good,Platanus x acerifolia,London planetree,1or2,None,NoDamage,TreesCount Staff,None,No,No,No,No,No,No,No,No,No,56 ALLEN STREET,10002,New York,103,1,Manhattan,1,65,26,MN27,Chinatown,1001600,New York,40.71688341,-73.99153287,986597.177708,200456.587326
08/31/2015,192889,210568,POINT (-73.948624417497 40.609984520365074),27,0,OnCurb,Alive,Good,Platanus x acerifolia,London planetree,None,None,NoDamage,TreesCount Staff,"Stones,BranchLights",Yes,No,No,No,No,No,Yes,No,No,3778 BEDFORD AVENUE,11229,Brooklyn,315,3,Brooklyn,48,41,17,BK44,Madison,3054800,New York,40.60998452,-73.94862442,998514.697509,161514.381746
09/05/2015,203760,302373,POINT (-73.91201937501401 40.78081458825172),2,0,OnCurb,Alive,Good,Platanus x acerifolia,London planetree,None,None,NoDamage,Volunteer,None,No,No,No,No,No,No,No,No,No,24-015 21 AVENUE,11105,Astoria,401,4,Queens,22,36,13,QN72,Steinway,4010500,New York,40.78081459,-73.91201937,1008615.76425,223760.895376
09/05/2015,203767,302373,POINT (-73.91106905408407 40.78159709045163),14,0,OnCurb,Alive,Good,Platanus x acerifolia,London planetree,None,None,Damage,Volunteer,None,No,No,No,No,No,No,No,No,No,20-038 CRESCENT STREET,11105,Astoria,401,4,Queens,22,36,13,QN72,Steinway,4010500,New York,40.78159709,-73.91106905,1008878.66103,224046.253073
09/07/2015,208458,312916,POINT (-73.79811408031267 40.767629052943775),2,0,OnCurb,Alive,Good,Platanus x acerifolia,London planetree,1or2,None,NoDamage,Volunteer,None,No,No,No,No,No,No,No,No,No,167-001 33 AVENUE,11358,Flushing,407,4,Queens,19,26,11,QN51,Murray Hill,4114100,New York,40.76762905,-73.79811408,1040172.25888,219009.168987
09/08/2015,209919,108875,POINT (-73.96331506361766 40.808811547267055),9,0,OnCurb,Alive,Good,Platanus x acerifolia,London planetree,None,None,NoDamage,TreesCount Staff,None,No,No,No,No,No,No,No,No,No,2990 BROADWAY,10027,New York,109,1,Manhattan,7,69,30,MN09,Morningside Heights,1020500,New York,40.80881155,-73.96331506,994405.426856,233951.048552
09/02/2015,198296,231792,POINT (-73.92576588806473 40.646496516411695),29,0,OnCurb,Alive,Good,Platanus x acerifolia,London planetree,None,None,NoDamage,Volunteer,Stones,Yes,No,No,No,No,No,No,No,No,5402 BEVERLY ROAD,11203,Brooklyn,317,3,Brooklyn,45,58,21,BK96,Rugby-Remsen Village,3094600,New York,40.64649652,-73.92576589,1004850.21272,174821.221602
09/05/2015,204169,415381,POINT (-74.13481836488482 40.567362175022126),20,0,OnCurb,Alive,Fair,Platanus x acerifolia,London planetree,1or2,None,Damage,NYC Parks Staff,"Stones,WiresRope,BranchLights",Yes,No,No,Yes,No,No,Yes,No,No,190 WOLVERINE STREET,10306,Staten Island,503,5,Staten Island,50,62,24,SI25,Oakwood-Oakwood Beach,5013800,New York,40.56736217,-74.13481836,946793.093603,146010.62732
09/07/2015,208338,106403,POINT (-73.97469909198902 40.78283422070782),5,0,OnCurb,Alive,Fair,Platanus x acerifolia,London planetree,1or2,Helpful,NoDamage,Volunteer,None,No,No,No,No,No,No,No,No,No,424 COLUMBUS AVENUE,10024,New York,107,1,Manhattan,6,67,29,MN12,Upper West Side,1016500,New York,40.78283422,-73.97469909,991256.739912,224485.491696
09/02/2015,196131,206122,POINT (-73.97678694913915 40.61298057281686),29,0,OnCurb,Alive,Good,Platanus x acerifolia,London planetree,None,None,NoDamage,TreesCount Staff,Stones,Yes,No,No,No,No,No,No,No,No,2345 63 STREET,11204,Brooklyn,311,3,Brooklyn,44,48,17,BK29,Bensonhurst East,3043600,New York,40.61298057,-73.97678695,990694.935261,162602.592496
09/02/2015,196374,103300,POINT (-73.99162804769017 40.7166971757019),13,0,OnCurb,Alive,Good,Platanus x acerifolia,London planetree,1or2,None,NoDamage,TreesCount Staff,None,No,No,No,No,No,No,No,No,No,50 ALLEN STREET,10002,New York,103,1,Manhattan,1,65,26,MN27,Chinatown,1001600,New York,40.71669718,-73.99162805,986570.800465,200388.734115
09/07/2015,208463,103960,POINT (-73.98935258382868 40.76312607478656),14,0,OnCurb,Alive,Good,Fraxinus,ash,None,None,NoDamage,Volunteer,None,No,No,No,No,No,No,No,No,No,725 9 AVENUE,10019,New York,104,1,Manhattan,3,75,27,MN15,Clinton,1012700,New York,40.76312607,-73.98935258,987199.528866,217304.322331
09/04/2015,201661,348116,POINT (-73.85066148383136 40.714986665047206),6,0,OnCurb,Alive,Good,Platanus x acerifolia,London planetree,1or2,None,Damage,Volunteer,"WiresRope,BranchOther",No,No,No,Yes,No,No,No,No,Yes,96-008 70 AVENUE,11375,Forest Hills,406,4,Queens,29,28,15,QN17,Forest Hills,4072300,New York,40.71498666,-73.85066148,1025649.3788,199800.721511
09/05/2015,203769,302373,POINT (-73.91084616552375 40.78178061437763),3,0,OnCurb,Alive,Good,Platanus x acerifolia,London planetree,None,None,NoDamage,Volunteer,None,No,No,No,No,No,No,No,No,No,20-024 CRESCENT STREET,11105,Astoria,401,4,Queens,22,36,13,QN72,Steinway,4010500,New York,40.78178061,-73.91084617,1008940.32003,224113.179776
09/07/2015,208456,312916,POINT (-73.79787010490064 40.767608366494336),36,0,OnCurb,Alive,Good,Platanus x acerifolia,London planetree,None,None,NoDamage,Volunteer,Stones,Yes,No,No,No,No,No,No,No,No,167-011 33 AVENUE,11358,Flushing,407,4,Queens,19,26,11,QN51,Murray Hill,4114100,New York,40.76760837,-73.7978701,1040239.85717,219001.788096
09/08/2015,209921,108875,POINT (-73.96340334087577 40.80874458097537),3,0,OffsetFromCurb,Alive,Good,Platanus x acerifolia,London planetree,None,None,NoDamage,TreesCount Staff,None,No,No,No,No,No,No,No,No,No,2966 BROADWAY,10027,New York,109,1,Manhattan,7,69,30,MN09,Morningside Heights,1020500,New York,40.80874458,-73.96340334,994380.999411,233926.640136
08/30/2015,189840,311123,POINT (-73.82657764962174 40.74830311097895),13,0,OnCurb,Alive,Good,Acer ginnala,Amur maple,None,None,Damage,TreesCount Staff,BranchLights,No,No,No,No,No,No,Yes,No,No,138-008 56 AVENUE,11355,Flushing,407,4,Queens,20,25,16,QN62,Queensboro Hill,4079900,New York,40.74830311,-73.82657765,1032301.82088,211951.22116
09/05/2015,203887,108342,POINT (-73.96071917063361 40.805725833688264),5,0,OnCurb,Alive,Good,Quercus phellos,willow oak,1or2,Helpful,NoDamage,TreesCount Staff,WiresRope,No,No,No,Yes,No,No,No,No,No,415 WEST 115 STREET,10025,New York,109,1,Manhattan,7,70,30,MN09,Morningside Heights,1020101,New York,40.80572583,-73.96071917,995124.547465,232827.125603
09/03/2015,200654,311719,POINT (-73.83342753060359 40.75465185367967),6,0,OnCurb,Alive,Fair,Acer ginnala,Amur maple,None,None,Damage,TreesCount Staff,None,No,No,No,No,No,No,No,No,No,41-058 COLLEGE POINT BOULEVARD,11355,Flushing,407,4,Queens,20,40,16,QN22,Flushing,4084900,New York,40.75465185,-73.83342753,1030399.46149,214260.585636
09/02/2015,196440,108889,POINT (-73.96412322243684 40.81114537770991),5,0,OnCurb,Alive,Fair,Ulmus americana,American elm,None,None,NoDamage,TreesCount Staff,None,No,No,No,No,No,No,No,No,No,475 RIVERSIDE DRIVE,10115,New York,109,1,Manhattan,7,69,31,MN09,Morningside Heights,1020500,New York,40.81114538,-73.96412322,994181.357422,234801.253216
09/05/2015,204246,415345,POINT (-74.13565413722235 40.56710370271643),8,0,OnCurb,Alive,Good,Acer campestre,hedge maple,1or2,Unsure,NoDamage,NYC Parks Staff,"Stones,BranchLights",Yes,No,No,No,No,No,Yes,No,No,208 WOLVERINE STREET,10306,Staten Island,503,5,Staten Island,50,62,24,SI25,Oakwood-Oakwood Beach,5013800,New York,40.5671037,-74.13565414,946560.743346,145916.818125
08/31/2015,193014,211158,POINT (-73.92220307515682 40.66522203542396),22,0,OnCurb,Alive,Good,Quercus palustris,pin oak,None,None,NoDamage,Volunteer,None,No,No,No,No,No,No,No,No,No,713 RALPH AVENUE,11212,Brooklyn,316,3,Brooklyn,41,55,20,BK81,Brownsville,3090000,New York,40.66522204,-73.92220308,1005832.84593,181644.303756
08/27/2015,180707,230024,POINT (-73.95649258663089 40.627001309145506),17,0,OnCurb,Alive,Fair,Quercus palustris,pin oak,None,None,Damage,TreesCount Staff,Stones,Yes,No,No,No,No,No,No,No,No,1439 OCEAN AVENUE,11210,Brooklyn,314,3,Brooklyn,45,42,17,BK43,Midwood,3076200,New York,40.62700131,-73.95649259,996326.980427,167712.861475
09/02/2015,198230,411696,POINT (-74.1921610911247 40.539370099142886),10,0,OnCurb,Alive,Good,Acer rubrum,red maple,None,None,Damage,TreesCount Staff,"WiresRope,BranchLights",No,No,No,Yes,No,No,Yes,No,No,561 LAMONT AVENUE,10312,Staten Island,503,5,Staten Island,51,62,24,SI48,Arden Heights,5017009,New York,40.5393701,-74.19216109,930839.077939,135842.199166
08/31/2015,192814,102227,POINT (-74.00504966097043 40.73998078715982),7,0,OnCurb,Alive,Good,Quercus palustris,pin oak,None,None,NoDamage,Volunteer,None,No,No,No,No,No,No,No,No,No,345 WEST 13 STREET,10014,New York,102,1,Manhattan,3,66,27,MN23,West Village,1007700,New York,40.73998079,-74.00504966,982850.665516,208871.607569
08/27/2015,179828,102993,POINT (-73.9911988140183 40.72180184476791),1,0,OnCurb,Alive,Good,Acer rubrum,red maple,None,None,NoDamage,TreesCount Staff,None,No,No,No,No,No,No,No,No,No,190 FORSYTH STREET,10002,New York,103,1,Manhattan,1,65,26,MN27,Chinatown,1003601,New York,40.72180184,-73.99119881,986689.602064,202248.533217
09/02/2015,196765,310309,POINT (-73.82961561789335 40.70649325306424),20,0,OnCurb,Alive,Fair,Quercus palustris,pin oak,None,None,NoDamage,TreesCount Staff,Stones,Yes,No,No,No,No,No,No,No,No,84-061 ABINGDON ROAD,11415,Kew Gardens,409,4,Queens,29,27,15,QN60,Kew Gardens,4013600,New York,40.70649325,-73.82961562,1031489.69127,196716.967836
08/26/2015,178599,410841,POINT (-74.1563285618603 40.53195765715974),13,0,OnCurb,Alive,Good,Quercus palustris,pin oak,None,None,Damage,TreesCount Staff,"Stones,BranchLights",Yes,No,No,No,No,No,Yes,No,No,4465 HYLAN BOULEVARD,10312,Staten Island,503,5,Staten Island,51,62,24,SI01,Annadale-Huguenot-Prince's Bay-Eltingville,5015602,New York,40.53195766,-74.15632856,940793.851008,133121.86504
09/07/2015,208229,106402,POINT (-73.97237310801523 40.78220389461905),5,0,OnCurb,Alive,Good,Quercus palustris,pin oak,1or2,Helpful,NoDamage,Volunteer,None,No,No,No,No,No,No,No,No,No,1 WEST 81 STREET,10024,New York,107,1,Manhattan,6,67,29,MN12,Upper West Side,1016500,New York,40.78220389,-73.97237311,991900.96172,224256.037102
08/30/2015,189313,349085,POINT (-73.85600425263182 40.72877984849716),2,0,OnCurb,Alive,Good,Quercus palustris,pin oak,1or2,None,NoDamage,Volunteer,None,No,No,No,No,No,No,No,No,No,98-025 65 ROAD,11374,Rego Park,406,4,Queens,29,28,16,QN17,Forest Hills,4071304,New York,40.72877985,-73.85600425,1024160.0058,204823.516256
09/08/2015,208876,302094,POINT (-73.91633968601458 40.77399973028186),20,0,OnCurb,Alive,Good,Quercus palustris,pin oak,None,None,NoDamage,TreesCount Staff,Stones,Yes,No,No,No,No,No,No,No,No,23-071 28 STREET,11105,Astoria,401,4,Queens,22,36,12,QN72,Steinway,4011500,New York,40.77399973,-73.91633969,1007421.64885,221276.841945
08/30/2015,189570,223043,POINT (-73.97646441113959 40.66701232112726),27,0,OnCurb,Alive,Fair,Quercus palustris,pin oak,3or4,Helpful,Damage,Volunteer,BranchOther,No,No,No,No,No,No,No,No,Yes,587 6 STREET,11215,Brooklyn,306,3,Brooklyn,39,44,21,BK37,Park Slope-Gowanus,3016500,New York,40.66701232,-73.97646441,990779.196575,182287.848401
08/24/2015,170988,339667,POINT (-73.76764199907284 40.60866168114924),7,0,OnCurb,Alive,Good,Gleditsia triacanthos var. inermis,honeylocust,None,None,NoDamage,TreesCount Staff,None,No,No,No,No,No,No,No,No,No,29-011 WESTBOURNE AVENUE,11691,Far Rockaway,414,4,Queens,31,23,10,QN15,Far Rockaway-Bayswater,4100801,New York,40.60866168,-73.767642,1048766.61308,161113.821523
08/26/2015,178783,222380,POINT (-73.90933909161998 40.69775111583416),2,0,OnCurb,Alive,Fair,Gleditsia triacanthos var. inermis,honeylocust,None,None,NoDamage,Volunteer,None,No,No,No,No,No,No,No,No,No,1528 PUTNAM AVENUE,11237,Brooklyn,304,3,Brooklyn,37,53,18,BK77,Bushwick North,3043900,New York,40.69775112,-73.90933909,1009389.37523,193499.012986
08/25/2015,175693,105648,POINT (-73.98065645047268 40.74829709386316),4,0,OnCurb,Alive,Good,Ginkgo biloba,ginkgo,1or2,Helpful,NoDamage,Volunteer,None,No,No,No,No,No,No,No,No,No,30 PARK AVENUE,10016,New York,106,1,Manhattan,4,75,28,MN20,Murray Hill-Kips Bay,1008200,New York,40.74829709,-73.98065645,989609.709741,211902.05492
08/31/2015,190540,106697,POINT (-73.97423449341356 40.792387023589114),7,0,OnCurb,Alive,Good,Gleditsia triacanthos var. inermis,honeylocust,None,Helpful,NoDamage,Volunteer,RootOther,No,No,Yes,No,No,No,No,No,No,255 WEST 92 STREET,10025,New York,107,1,Manhattan,6,67,31,MN12,Upper West Side,1017900,New York,40.79238702,-73.97423449,991384.380404,227965.942412
08/12/2015,140722,219026,POINT (-73.9676460501815 40.687678567049865),4,0,OnCurb,Alive,Good,Ginkgo biloba,ginkgo,1or2,None,NoDamage,Volunteer,None,No,No,No,No,No,No,No,No,No,345 CLINTON AVENUE,11238,Brooklyn,302,3,Brooklyn,35,57,25,BK69,Clinton Hill,3019700,New York,40.68767857,-73.96764605,993222.787817,189817.935047
08/20/2015,161235,339804,POINT (-73.772342855482 40.596266880967335),4,0,OnCurb,Alive,Fair,Gleditsia triacanthos var. inermis,honeylocust,None,None,Damage,TreesCount Staff,None,No,No,No,No,No,No,No,No,No,426 BEACH 40 STREET,11691,Far Rockaway,414,4,Queens,31,31,10,QN12,Hammels-Arverne-Edgemere,4097203,New York,40.59626688,-73.77234286,1047473.11042,156594.665207
08/20/2015,161242,339804,POINT (-73.77245394318506 40.59683647901558),3,0,OnCurb,Alive,Poor,Gleditsia triacanthos var. inermis,honeylocust,None,None,NoDamage,TreesCount Staff,None,No,No,No,No,No,No,No,No,No,438 BEACH 40 STREET,11691,Far Rockaway,414,4,Queens,31,31,10,QN12,Hammels-Arverne-Edgemere,4097203,New York,40.59683648,-73.77245394,1047441.72105,156802.103441
08/29/2015,186060,505600,POINT (-73.8934063139104 40.85791814268075),17,0,OnCurb,Alive,Good,Gleditsia triacanthos var. inermis,honeylocust,None,None,Damage,Volunteer,"Stones,TrunkOther",Yes,No,No,No,No,Yes,No,No,No,4623 PARK AVENUE,10458,Bronx,206,2,Bronx,15,86,33,BX40,Fordham South,2038302,New York,40.85791814,-73.89340631,1013736.36621,251858.210572
08/27/2015,180891,342936,POINT (-73.86526993448096 40.73999100224415),8,0,OnCurb,Alive,Good,Ginkgo biloba,ginkgo,None,None,NoDamage,Volunteer,None,No,No,No,No,No,No,No,No,No,53-008 97 STREET,11368,Corona,404,4,Queens,21,35,13,QN25,Corona,4044302,New York,40.739991,-73.86526993,1021585.63988,208904.001205
08/28/2015,183381,331371,POINT (-73.75365462363227 40.66362636421385),11,0,OnCurb,Alive,Good,Gleditsia triacanthos var. inermis,honeylocust,None,None,Damage,Volunteer,BranchLights,No,No,No,No,No,No,Yes,No,No,144-044 225 STREET,11413,Springfield Gardens,413,4,Queens,31,31,10,QN03,Springfield Gardens South-Brookville,4068000,New York,40.66362636,-73.75365462,1052594.02767,181149.472069
08/22/2015,166440,348523,POINT (-73.86525670768232 40.72186915184504),6,0,OnCurb,Alive,Good,Ginkgo biloba,ginkgo,None,None,Damage,Volunteer,None,No,No,No,No,No,No,No,No,No,64-001 FITCHETT STREET,11374,Rego Park,406,4,Queens,29,28,15,QN18,Rego Park,4069702,New York,40.72186915,-73.86525671,1021599.46105,202301.658439
09/02/2015,196492,210467,POINT (-73.93644715389304 40.604305228351556),37,0,OffsetFromCurb,Alive,Good,Quercus palustris,pin oak,None,None,NoDamage,TreesCount Staff,None,No,No,No,No,No,No,No,No,No,2072 STUART STREET,11229,Brooklyn,318,3,Brooklyn,46,59,22,BK44,Madison,3066600,New York,40.60430523,-73.93644715,1001897.27867,159447.487257
08/10/2015,134320,337363,POINT (-73.73473543174987 40.70321800070179),11,0,OnCurb,Alive,Good,Gleditsia triacanthos var. inermis,honeylocust,None,None,NoDamage,TreesCount Staff,None,No,No,No,No,No,No,No,No,No,221-040 MURDOCK AVENUE,11429,Queens Village,413,4,Queens,27,33,14,QN34,Queens Village,4058200,New York,40.703218,-73.73473543,1057799.11634,195589.114449
08/23/2015,168348,226376,POINT (-73.96350468040232 40.67591256104146),10,0,OnCurb,Alive,Good,Gleditsia triacanthos var. inermis,honeylocust,1or2,Unsure,NoDamage,Volunteer,"Stones,BranchOther",Yes,No,No,No,No,No,No,No,Yes,738 WASHINGTON AVENUE,11238,Brooklyn,308,3,Brooklyn,35,57,20,BK64,Prospect Heights,3020500,New York,40.67591256,-73.96350468,994373.108351,185531.690666
09/04/2015,201658,348116,POINT (-73.85049292510068 40.71525300311096),32,0,OnCurb,Alive,Good,Quercus palustris,pin oak,None,None,NoDamage,Volunteer,"Stones,TrunkOther",Yes,No,No,No,No,Yes,No,No,No,70-004 INGRAM STREET,11375,Forest Hills,406,4,Queens,29,28,15,QN17,Forest Hills,4072300,New York,40.715253,-73.85049293,1025695.94072,199897.836147
09/05/2015,204165,415381,POINT (-74.13410013975913 40.5674483333905),4,0,OnCurb,Alive,Good,Acer campestre,hedge maple,1or2,None,NoDamage,NYC Parks Staff,BranchLights,No,No,No,No,No,No,Yes,No,No,168 WOLVERINE STREET,10306,Staten Island,503,5,Staten Island,50,62,24,SI25,Oakwood-Oakwood Beach,5013800,New York,40.56744833,-74.13410014,946992.687692,146041.710591
08/29/2015,186817,301700,POINT (-73.89080442865829 40.770796739955074),4,0,OnCurb,Alive,Good,Quercus palustris,pin oak,None,None,NoDamage,Volunteer,None,No,No,No,No,No,No,No,No,No,79-001 21 AVENUE,11370,East Elmhurst,401,4,Queens,22,36,13,QN72,Steinway,4031700,New York,40.77079674,-73.89080443,1014495.67736,220117.672019
09/02/2015,198164,311535,POINT (-73.82895529041788 40.75195241033611),29,0,OnCurb,Alive,Good,Quercus palustris,pin oak,None,None,Damage,TreesCount Staff,Stones,Yes,No,No,No,No,No,No,No,No,42-094 SAULL STREET,11355,Flushing,407,4,Queens,20,25,16,QN22,Flushing,4079702,New York,40.75195241,-73.82895529,1031640.42949,213279.480643
09/02/2015,196627,310473,POINT (-73.82549632406925 40.71219318208699),17,0,OnCurb,Alive,Fair,Quercus palustris,pin oak,None,None,NoDamage,TreesCount Staff,None,No,No,No,No,No,No,No,No,No,125-002 QUEENS BOULEVARD,11415,Kew Gardens,409,4,Queens,29,27,14,QN60,Kew Gardens,4021600,New York,40.71219318,-73.82549632,1032627.64208,198795.868206
09/07/2015,208395,106403,POINT (-73.97613835640813 40.78080394938657),13,0,OffsetFromCurb,Alive,Good,Quercus palustris,pin oak,1or2,None,NoDamage,Volunteer,None,No,No,No,No,No,No,No,No,No,366 COLUMBUS AVENUE,10024,New York,107,1,Manhattan,6,67,29,MN12,Upper West Side,1016500,New York,40.78080395,-73.97613836,990858.35685,223745.683136
08/31/2015,191733,310427,POINT (-73.82794407979267 40.71175383782811),4,0,OnCurb,Alive,Good,Quercus palustris,pin oak,None,None,NoDamage,TreesCount Staff,None,No,No,No,No,No,No,No,No,No,123-011 82 ROAD,11415,Kew Gardens,409,4,Queens,29,27,14,QN60,Kew Gardens,4021600,New York,40.71175384,-73.82794408,1031949.3662,198634.459736
09/08/2015,209913,108875,POINT (-73.96312071522566 40.809077091635245),21,0,OnCurb,Alive,Good,Quercus palustris,pin oak,1or2,None,NoDamage,TreesCount Staff,None,No,No,No,No,No,No,No,No,No,3000 BROADWAY,10027,New York,109,1,Manhattan,7,69,30,MN09,Morningside Heights,1020500,New York,40.80907709,-73.96312072,994459.187247,234047.818371
09/01/2015,194656,413528,POINT (-74.16264761325981 40.56025909897613),3,0,OnCurb,Alive,Fair,Quercus palustris,pin oak,1or2,None,Damage,TreesCount Staff,RootOther,No,No,Yes,No,No,No,No,No,No,630 ARTHUR KILL ROAD,10308,Staten Island,503,5,Staten Island,51,62,24,SI54,Great Kills,5014607,New York,40.5602591,-74.16264761,939056.430599,143435.935947
08/31/2015,192702,206426,POINT (-73.99518627114927 40.617992061446785),20,0,OnCurb,Alive,Good,Acer rubrum,red maple,1or2,Harmful,NoDamage,TreesCount Staff,None,No,No,No,No,No,No,No,No,No,6912 17 AVENUE,11204,Brooklyn,311,3,Brooklyn,43,49,22,BK28,Bensonhurst West,3026200,New York,40.61799206,-73.99518627,985586.396594,164427.591798
08/31/2015,191162,224127,POINT (-74.0014707483652 40.68162051359106),11,0,OnCurb,Alive,Good,Ginkgo biloba,ginkgo,1or2,None,NoDamage,Volunteer,Stones,Yes,No,No,No,No,No,No,No,No,148 SUMMIT STREET,11231,Brooklyn,306,3,Brooklyn,39,52,26,BK33,Carroll Gardens-Columbia Street-Red Hook,3006300,New York,40.68162051,-74.00147075,983842.077248,187609.156656
08/31/2015,191248,232171,POINT (-73.95571955043029 40.650159419405185),3,0,OnCurb,Alive,Poor,Gleditsia triacanthos var. inermis,honeylocust,1or2,None,Damage,Volunteer,None,No,No,No,No,No,No,No,No,No,2201 BEDFORD AVENUE,11226,Brooklyn,317,3,Brooklyn,40,42,21,BK95,Erasmus,3079400,New York,40.65015942,-73.95571955,996537.298248,176150.0946
08/30/2015,189708,223525,POINT (-73.97323052472242 40.67524603537304),13,0,OnCurb,Alive,Good,Gleditsia triacanthos var. inermis,honeylocust,3or4,Helpful,NoDamage,Volunteer,None,No,No,No,No,No,No,No,No,No,209 LINCOLN PLACE,11217,Brooklyn,306,3,Brooklyn,39,52,21,BK37,Park Slope-Gowanus,3015900,New York,40.67524604,-73.97323052,991675.418208,185287.882099
09/04/2015,201682,515571,POINT (-73.84936673017978 40.903399783034004),11,0,OnCurb,Alive,Good,Gleditsia triacanthos var. inermis,honeylocust,None,None,Damage,TreesCount Staff,None,No,No,No,No,No,No,No,No,No,719 CRANFORD AVENUE,10470,Bronx,212,2,Bronx,11,81,36,BX62,Woodlawn-Wakefield,2044200,New York,40.90339978,-73.84936673,1025890.26415,268446.853576
09/01/2015,195151,342130,POINT (-73.87162803649807 40.76416599592589),3,0,OnCurb,Alive,Good,Tilia americana,American linden,1or2,None,Damage,TreesCount Staff,None,No,No,No,No,No,No,No,No,No,25-015 98 STREET,11369,East Elmhurst,403,4,Queens,21,35,13,QN27,East Elmhurst,4036700,New York,40.764166,-73.87162804,1019810.81207,217709.077427
08/25/2015,173925,206411,POINT (-73.99026971945337 40.618915854764595),10,0,OnCurb,Alive,Good,Gleditsia triacanthos var. inermis,honeylocust,None,None,NoDamage,TreesCount Staff,None,No,No,No,No,No,No,No,No,No,6501 18 AVENUE,11204,Brooklyn,311,3,Brooklyn,47,49,17,BK28,Bensonhurst West,3025200,New York,40.61891585,-73.99026972,986951.301672,164764.267306
08/26/2015,178756,106241,POINT (-73.97980286957241 40.776883569081534),14,0,OnCurb,Alive,Good,Gleditsia triacanthos var. inermis,honeylocust,1or2,Helpful,NoDamage,Volunteer,None,No,No,No,No,No,No,No,No,No,110 WEST 71 STREET,10023,New York,107,1,Manhattan,6,67,27,MN14,Lincoln Square,1015700,New York,40.77688357,-73.97980287,989843.818525,222317.101019
08/20/2015,163280,107629,POINT (-73.95532709911106 40.77277225281873),15,0,OnCurb,Alive,Good,Gleditsia triacanthos var. inermis,honeylocust,None,None,Damage,Volunteer,RootOther,No,No,Yes,No,No,No,No,No,No,1500 2 AVENUE,10075,New York,108,1,Manhattan,5,76,28,MN31,Lenox Hill-Roosevelt Island,1013400,New York,40.77277225,-73.9553271,996623.41717,220821.720808
08/30/2015,190420,106099,POINT (-73.98475371509943 40.76996266103026),13,0,OnCurb,Alive,Good,Gleditsia triacanthos var. inermis,honeylocust,1or2,Helpful,NoDamage,Volunteer,None,No,No,No,No,No,No,No,No,No,8 COLUMBUS AVENUE,10023,New York,107,1,Manhattan,3,67,27,MN14,Lincoln Square,1014500,New York,40.76996266,-73.98475372,988473.066017,219795.30521
08/30/2015,190154,300780,POINT (-73.92575934741653 40.762068387732796),10,0,OnCurb,Alive,Good,Gleditsia triacanthos var. inermis,honeylocust,None,Helpful,NoDamage,Volunteer,"WiresRope,TrunkLights,BranchLights",No,No,No,Yes,Yes,No,Yes,No,No,30-010 BROADWAY,11106,Astoria,401,4,Queens,22,36,12,QN70,Astoria,4005900,New York,40.76206839,-73.92575935,1004816.34173,216927.508124
08/31/2015,191273,105425,POINT (-73.98436754908766 40.73943979278015),8,0,OnCurb,Alive,Fair,Gleditsia triacanthos var. inermis,honeylocust,1or2,Harmful,Damage,Volunteer,BranchOther,No,No,No,No,No,No,No,No,Yes,139 EAST 23 STREET,10010,New York,106,1,Manhattan,2,75,28,MN21,Gramercy,1006800,New York,40.73943979,-73.98436755,988582.014618,208674.852385
08/26/2015,178435,309063,POINT (-73.86702522453213 40.6906255669243),22,0,OnCurb,Alive,Fair,Ginkgo biloba,ginkgo,None,None,Damage,TreesCount Staff,"Stones,WiresRope,BranchLights",Yes,No,No,Yes,No,No,Yes,No,No,74-023 87 AVENUE,11421,Woodhaven,409,4,Queens,30,38,12,QN53,Woodhaven,4000400,New York,40.69062557,-73.86702522,1021126.5263,190917.94597
08/27/2015,180307,338338,POINT (-73.81814429380658 40.58401171426236),3,0,OnCurb,Alive,Good,Ginkgo biloba,ginkgo,None,None,NoDamage,Volunteer,None,No,No,No,No,No,No,No,No,No,164 BEACH 97 STREET,11693,Far Rockaway,414,4,Queens,32,23,10,QN10,Breezy Point-Belle Harbor-Rockaway Park-Broad Chan,4094201,New York,40.58401171,-73.81814429,1034762.79332,152100.076099
08/27/2015,179475,223106,POINT (-73.98089638287 40.66831143307048),16,0,OnCurb,Alive,Fair,Gleditsia triacanthos var. inermis,honeylocust,None,None,NoDamage,Volunteer,None,No,No,No,No,No,No,No,No,No,469 7 STREET,11215,Brooklyn,306,3,Brooklyn,39,52,21,BK37,Park Slope-Gowanus,3015300,New York,40.66831143,-73.98089638,989549.584533,182760.852376
08/30/2015,189401,223528,POINT (-73.97201220349837 40.67498646199742),20,0,OnCurb,Alive,Fair,Gleditsia triacanthos var. inermis,honeylocust,None,Harmful,Damage,Volunteer,RootOther,No,No,Yes,No,No,No,No,No,No,22 8 AVENUE,11217,Brooklyn,306,3,Brooklyn,39,52,21,BK37,Park Slope-Gowanus,3015900,New York,40.67498646,-73.9720122,992013.390957,185193.417721
08/26/2015,176850,105341,POINT (-73.98261516507901 40.73570804262992),7,0,OnCurb,Alive,Fair,Ginkgo biloba,ginkgo,None,None,Damage,Volunteer,Stones,Yes,No,No,No,No,No,No,No,No,335 2 AVENUE,10003,New York,106,1,Manhattan,2,74,28,MN21,Gramercy,1006400,New York,40.73570804,-73.98261517,989067.899473,207315.349527
08/31/2015,191197,310448,POINT (-73.83049495134772 40.712661666273114),4,0,OnCurb,Alive,Good,Ginkgo biloba,ginkgo,None,None,NoDamage,TreesCount Staff,None,No,No,No,No,No,No,No,No,No,108 81 AVENUE,11415,Kew Gardens,409,4,Queens,29,28,15,QN60,Kew Gardens,4077300,New York,40.71266167,-73.83049495,1031241.54446,198963.829812
08/29/2015,183942,504242,POINT (-73.90137420267449 40.85392217509237),3,0,OnCurb,Alive,Fair,Gleditsia triacanthos var. inermis,honeylocust,None,None,NoDamage,Volunteer,None,No,No,No,No,No,No,No,No,No,2095 ANTHONY AVENUE,10457,Bronx,205,2,Bronx,15,86,33,BX41,Mount Hope,2038100,New York,40.85392218,-73.9013742,1011533.89752,250399.745313
08/26/2015,178779,229016,POINT (-73.97579405598702 40.64072804862932),7,0,OnCurb,Alive,Poor,Ginkgo biloba,ginkgo,1or2,Helpful,Damage,Volunteer,None,No,No,No,No,No,No,No,No,No,403 AVENUE C,11218,Brooklyn,312,3,Brooklyn,39,44,17,BK41,Kensington-Ocean Parkway,3049400,New York,40.64072805,-73.97579406,990967.811356,172711.810794
08/30/2015,189593,223272,POINT (-73.97521359341532 40.67179945111836),20,0,OnCurb,Alive,Good,Ginkgo biloba,ginkgo,3or4,None,Damage,Volunteer,"Stones,RootOther",Yes,No,Yes,No,No,No,No,No,No,23 FISKE PLACE,11215,Brooklyn,306,3,Brooklyn,39,52,21,BK37,Park Slope-Gowanus,3015700,New York,40.67179945,-73.97521359,991125.702444,184032.031264
09/03/2015,200590,306674,POINT (-73.78793924620142 40.73275125780878),19,0,OnCurb,Alive,Good,Ginkgo biloba,ginkgo,None,None,NoDamage,TreesCount Staff,None,No,No,No,No,No,No,No,No,No,69-046 183 STREET,11365,Fresh Meadows,408,4,Queens,24,25,11,QN41,Fresh Meadows-Utopia,4134100,New York,40.73275126,-73.78793925,1043021.43756,206308.760661
09/03/2015,200604,311557,POINT (-73.83485945619927 40.753950211492175),13,0,OnCurb,Alive,Good,Gleditsia triacanthos var. inermis,honeylocust,None,None,Damage,TreesCount Staff,BranchLights,No,No,No,No,No,No,Yes,No,No,131-010 MAPLE AVENUE,11355,Flushing,407,4,Queens,20,40,16,QN22,Flushing,4084900,New York,40.75395021,-73.83485946,1030003.2241,214004.203931
08/27/2015,180266,106095,POINT (-73.98369364073422 40.77033272090147),7,0,OnCurb,Alive,Good,Gleditsia triacanthos var. inermis,honeylocust,1or2,Helpful,NoDamage,Volunteer,None,No,No,No,No,No,No,No,No,No,43 WEST 61 STREET,10023,New York,107,1,Manhattan,3,67,27,MN14,Lincoln Square,1014500,New York,40.77033272,-73.98369364,988766.670745,219930.183221
09/06/2015,206337,224360,POINT (-73.9954703275665 40.6858461395734),17,0,OnCurb,Alive,Good,Tilia americana,American linden,None,Harmful,Damage,Volunteer,Stones,Yes,No,No,No,No,No,No,No,No,233 KANE STREET,11201,Brooklyn,306,3,Brooklyn,39,52,26,BK33,Carroll Gardens-Columbia Street-Red Hook,3004500,New York,40.68584614,-73.99547033,985506.257974,189148.703773
09/06/2015,206338,224360,POINT (-73.99536155283243 40.68581010748825),15,0,OnCurb,Alive,Good,Tilia americana,American linden,None,Harmful,Damage,Volunteer,Stones,Yes,No,No,No,No,No,No,No,No,239 KANE STREET,11201,Brooklyn,306,3,Brooklyn,39,52,26,BK33,Carroll Gardens-Columbia Street-Red Hook,3004500,New York,40.68581011,-73.99536155,985536.426221,189135.577815
08/30/2015,190393,107488,POINT (-73.95993923683677 40.76955938613082),4,0,OnCurb,Alive,Good,Gleditsia triacanthos var. inermis,honeylocust,3or4,Unsure,NoDamage,Volunteer,"Stones,BranchLights,BranchOther",Yes,No,No,No,No,No,Yes,No,Yes,209 EAST 72 STREET,10021,New York,108,1,Manhattan,4,76,28,MN31,Lenox Hill-Roosevelt Island,1012600,New York,40.76955939,-73.95993924,995346.491247,219650.54861
09/04/2015,201558,102919,POINT (-73.98958223874826 40.72173135843938),10,0,OnCurb,Alive,Good,Gleditsia triacanthos var. inermis,honeylocust,None,None,Damage,NYC Parks Staff,Stones,Yes,No,No,No,No,No,No,No,No,77 STANTON STREET,10002,New York,103,1,Manhattan,1,65,26,MN27,Chinatown,1003601,New York,40.72173136,-73.98958224,987137.703858,202222.902034
09/06/2015,205787,106342,POINT (-73.98322687764586 40.78010688421972),10,0,OnCurb,Alive,Fair,Ginkgo biloba,ginkgo,3or4,Harmful,NoDamage,Volunteer,None,No,No,No,No,No,No,No,No,No,262 WEST 73 STREET,10023,New York,107,1,Manhattan,6,67,29,MN14,Lincoln Square,1015900,New York,40.78010688,-73.98322688,988895.276787,223491.263369
09/06/2015,205970,301269,POINT (-73.89434095986375 40.76810089883451),6,0,OnCurb,Alive,Good,Ginkgo biloba,ginkgo,None,None,NoDamage,Volunteer,None,No,No,No,No,No,No,No,No,No,22-012 75 STREET,11370,East Elmhurst,401,4,Queens,22,36,13,QN72,Steinway,4031700,New York,40.7681009,-73.89434096,1013517.29185,219134.286847
08/27/2015,179537,323451,POINT (-73.78633372012597 40.76280481942359),13,0,OnCurb,Alive,Fair,Acer rubrum,red maple,1or2,None,Damage,Volunteer,Stones,Yes,No,No,No,No,No,No,No,No,195-028 37 AVENUE,11358,Flushing,411,4,Queens,19,26,11,QN48,Auburndale,4113900,New York,40.76280482,-73.78633372,1043439.69132,217259.28666
08/27/2015,179476,223106,POINT (-73.98079836980062 40.66826408835274),9,0,OnCurb,Alive,Good,Quercus palustris,pin oak,None,None,NoDamage,Volunteer,Stones,Yes,No,No,No,No,No,No,No,No,469 7 STREET,11215,Brooklyn,306,3,Brooklyn,39,52,21,BK37,Park Slope-Gowanus,3015300,New York,40.66826409,-73.98079837,989576.778377,182743.6093
08/30/2015,189590,223272,POINT (-73.97503084431871 40.672018678962196),24,0,OnCurb,Alive,Fair,Ginkgo biloba,ginkgo,1or2,None,Damage,Volunteer,"Stones,RootOther",Yes,No,Yes,No,No,No,No,No,No,19 FISKE PLACE,11215,Brooklyn,306,3,Brooklyn,39,52,21,BK37,Park Slope-Gowanus,3015700,New York,40.67201868,-73.97503084,991176.373931,184111.916603
08/31/2015,191351,347976,POINT (-73.8544642235531 40.711718682810904),3,0,OnCurb,Alive,Good,Gleditsia triacanthos var. inermis,honeylocust,3or4,None,NoDamage,Volunteer,BranchLights,No,No,No,No,No,No,Yes,No,No,89-021 69 ROAD,11375,Forest Hills,406,4,Queens,29,28,15,QN17,Forest Hills,4072900,New York,40.71171868,-73.85446422,1024597.16864,198608.323634
09/08/2015,208767,107164,POINT (-73.96121439017126 40.763321885181526),11,0,OnCurb,Alive,Good,Gleditsia triacanthos var. inermis,honeylocust,1or2,Harmful,Damage,Volunteer,RootOther,No,No,Yes,No,No,No,No,No,No,317 EAST 64 STREET,10065,New York,108,1,Manhattan,5,76,28,MN31,Lenox Hill-Roosevelt Island,1011000,New York,40.76332189,-73.96121439,994994.290835,217377.861882
09/06/2015,205734,111960,POINT (-73.9856408665588 40.78061205329372),10,0,OnCurb,Alive,Good,Gleditsia triacanthos var. inermis,honeylocust,None,None,NoDamage,Volunteer,Stones,Yes,No,No,No,No,No,No,No,No,2 RIVERSIDE DRIVE,10023,New York,107,1,Manhattan,6,67,31,MN12,Upper West Side,1016300,New York,40.78061205,-73.98564087,988226.698071,223675.19476
09/04/2015,201486,338001,POINT (-73.850185988622 40.57619607059636),13,0,OnCurb,Alive,Good,Gleditsia triacanthos var. inermis,honeylocust,None,None,NoDamage,NYC Parks Staff,None,No,No,No,No,No,No,No,No,No,231 BEACH 131 STREET,11694,Rockaway Park,414,4,Queens,32,23,15,QN10,Breezy Point-Belle Harbor-Rockaway Park-Broad Chan,4092800,New York,40.57619607,-73.85018599,1025867.6743,149235.797379
09/04/2015,203326,340820,POINT (-73.88713448997301 40.74996589421454),10,0,OnCurb,Alive,Good,Gleditsia triacanthos var. inermis,honeylocust,None,None,NoDamage,Volunteer,None,No,No,No,No,No,No,No,No,No,35-056 79 STREET,11372,Jackson Heights,403,4,Queens,25,39,13,QN28,Jackson Heights,4028500,New York,40.74996589,-73.88713449,1015521.97813,212529.607143
08/27/2015,179994,216037,POINT (-73.94980362691733 40.7254984444126),14,0,OnCurb,Alive,Good,Gleditsia triacanthos var. inermis,honeylocust,None,None,NoDamage,Volunteer,None,No,No,No,No,No,No,No,No,No,179 ECKFORD STREET,11222,Brooklyn,301,3,Brooklyn,33,50,26,BK76,Greenpoint,3057100,New York,40.72549844,-73.94980363,998163.1677,203599.182418
08/26/2015,178583,308594,POINT (-73.86658672060496 40.68844786971196),14,0,OnCurb,Alive,Good,Tilia americana,American linden,None,None,Damage,TreesCount Staff,"Stones,RootOther,BranchLights",Yes,No,Yes,No,No,No,Yes,No,No,88-001 74 PLACE,11421,Woodhaven,409,4,Queens,30,38,12,QN53,Woodhaven,4000400,New York,40.68844787,-73.86658672,1021249.34036,190124.732989
08/29/2015,187232,218941,POINT (-73.9762603088283 40.68591967165016),17,0,OnCurb,Alive,Good,Ginkgo biloba,ginkgo,None,None,Damage,Volunteer,Stones,Yes,No,No,No,No,No,No,No,No,131 FT GREENE PLACE,11217,Brooklyn,302,3,Brooklyn,35,57,25,BK68,Fort Greene,3003500,New York,40.68591967,-73.97626031,990833.951387,189176.353324
08/27/2015,179887,216215,POINT (-73.95177311899286 40.72856768684118),5,0,OnCurb,Alive,Good,Tilia americana,American linden,None,None,NoDamage,Volunteer,None,No,No,No,No,No,No,No,No,No,204 CALYER STREET,11222,Brooklyn,301,3,Brooklyn,33,50,26,BK76,Greenpoint,3057300,New York,40.72856769,-73.95177312,997616.658622,204717.095865
09/03/2015,200381,408850,POINT (-74.16220431179724 40.596660022153145),3,0,OnCurb,Alive,Good,Gleditsia triacanthos var. inermis,honeylocust,None,None,NoDamage,TreesCount Staff,None,No,No,No,No,No,No,No,No,No,2086 RICHMOND AVENUE,10314,Staten Island,502,5,Staten Island,50,63,24,SI05,New Springville-Bloomfield-Travis,5029103,New York,40.59666002,-74.16220431,939204.163899,156697.446826
09/02/2015,198290,313012,POINT (-73.8271460568184 40.769804273003245),7,0,OnCurb,Alive,Good,Gleditsia triacanthos var. inermis,honeylocust,None,None,Damage,TreesCount Staff,None,No,No,No,No,No,No,No,No,No,140-040 31 DRIVE,11354,Flushing,407,4,Queens,20,40,16,QN22,Flushing,4088901,New York,40.76980427,-73.82714606,1032128.86913,219784.470914
08/30/2015,190087,301004,POINT (-73.92810435566474 40.76316179541797),8,0,OnCurb,Alive,Good,Gleditsia triacanthos var. inermis,honeylocust,None,None,NoDamage,Volunteer,"Stones,WiresRope,BranchLights",Yes,No,No,Yes,No,No,Yes,No,No,25-010 BROADWAY,11106,Astoria,401,4,Queens,22,36,12,QN70,Astoria,4005300,New York,40.7631618,-73.92810436,1004166.39454,217325.330491
08/30/2015,190421,106099,POINT (-73.98485279037527 40.77000454390119),14,0,OnCurb,Alive,Good,Gleditsia triacanthos var. inermis,honeylocust,1or2,Helpful,NoDamage,Volunteer,None,No,No,No,No,No,No,No,No,No,8 COLUMBUS AVENUE,10023,New York,107,1,Manhattan,3,67,27,MN14,Lincoln Square,1014500,New York,40.77000454,-73.98485279,988445.620534,219810.559772
08/28/2015,181446,208032,POINT (-73.94378431797111 40.578872483620586),24,0,OnCurb,Alive,Good,Ginkgo biloba,ginkgo,None,None,Damage,NYC Parks Staff,Stones,Yes,No,No,No,No,No,No,No,No,160 IRWIN STREET,11235,Brooklyn,315,3,Brooklyn,48,45,22,BK17,Sheepshead Bay-Gerritsen Beach-Manhattan Beach,3062000,New York,40.57887248,-73.94378432,999865.850318,150180.303364
09/03/2015,199062,107043,POINT (-73.98213047206272 40.77038982952048),4,0,OnCurb,Alive,Good,Malus,crab apple,None,None,NoDamage,TreesCount Staff,None,No,No,No,No,No,No,No,No,No,1880 BROADWAY,10023,New York,107,1,Manhattan,3,75,27,MN14,Lincoln Square,1014500,New York,40.77038983,-73.98213047,989199.645929,219951.074255
09/03/2015,200398,408850,POINT (-74.16242862629674 40.59784148735821),3,0,OnCurb,Alive,Good,Gleditsia triacanthos var. inermis,honeylocust,None,None,Damage,TreesCount Staff,None,No,No,No,No,No,No,No,No,No,2043 RICHMOND AVENUE,10314,Staten Island,502,5,Staten Island,50,63,24,SI05,New Springville-Bloomfield-Travis,5027301,New York,40.59784149,-74.16242863,939142.667631,157127.999442
08/27/2015,179942,215925,POINT (-73.94879371143635 40.72262724694355),8,0,OnCurb,Alive,Good,Tilia americana,American linden,1or2,None,NoDamage,Volunteer,None,No,No,No,No,No,No,No,No,No,280 DRIGGS AVENUE,11222,Brooklyn,301,3,Brooklyn,33,50,26,BK76,Greenpoint,3057100,New York,40.72262725,-73.94879371,998443.702244,202553.27867
08/30/2015,189351,223210,POINT (-73.97620525932034 40.670998675536595),4,0,OnCurb,Alive,Good,Gleditsia triacanthos var. inermis,honeylocust,3or4,Helpful,NoDamage,Volunteer,None,No,No,No,No,No,No,No,No,No,494 1 STREET,11215,Brooklyn,306,3,Brooklyn,39,52,21,BK37,Park Slope-Gowanus,3015500,New York,40.67099868,-73.97620526,990850.695448,183740.209669
09/01/2015,196020,506702,POINT (-73.90162551182495 40.86998754094472),2,0,OnCurb,Alive,Good,Gleditsia triacanthos var. inermis,honeylocust,1or2,None,Damage,Volunteer,None,No,No,No,No,No,No,No,No,No,2728 WEBB AVENUE,10468,Bronx,208,2,Bronx,14,81,33,BX28,Van Cortlandt Village,2026701,New York,40.86998754,-73.90162551,1011457.80187,256252.898961
09/06/2015,205829,213861,POINT (-73.92415479730757 40.63056030950792),20,0,OnCurb,Alive,Good,Gleditsia triacanthos var. inermis,honeylocust,None,None,Damage,Volunteer,Stones,Yes,No,No,No,No,No,No,No,No,1119 EAST 54 STREET,11234,Brooklyn,318,3,Brooklyn,46,59,21,BK58,Flatlands,3072800,New York,40.63056031,-73.9241548,1005302.32271,169015.615103
09/08/2015,208820,107238,POINT (-73.95955457579119 40.76436461074178),13,0,OnCurb,Alive,Good,Gleditsia triacanthos var. inermis,honeylocust,3or4,Harmful,NoDamage,Volunteer,None,No,No,No,No,No,No,No,No,No,333 EAST 66 STREET,10065,New York,108,1,Manhattan,5,76,28,MN31,Lenox Hill-Roosevelt Island,1011800,New York,40.76436461,-73.95955458,995453.912948,217757.969061
08/26/2015,178606,105607,POINT (-73.97857965770694 40.747801383092565),7,0,OnCurb,Alive,Good,Gleditsia triacanthos var. inermis,honeylocust,1or2,Helpful,NoDamage,Volunteer,None,No,No,No,No,No,No,No,No,No,137 EAST 36 STREET,10016,New York,106,1,Manhattan,4,73,28,MN20,Murray Hill-Kips Bay,1008000,New York,40.74780138,-73.97857966,990185.19153,211721.585465
09/03/2015,200673,229928,POINT (-73.96036844845918 40.624421400549274),30,0,OnCurb,Alive,Good,Platanus x acerifolia,London planetree,None,None,NoDamage,TreesCount Staff,"Stones,BranchLights",Yes,No,No,No,No,No,Yes,No,No,1032 EAST 16 STREET,11230,Brooklyn,314,3,Brooklyn,44,48,17,BK43,Midwood,3053200,New York,40.6244214,-73.96036845,995251.52687,166772.421754
08/29/2015,186501,505606,POINT (-73.88745706302697 40.85705393379904),16,0,OnCurb,Alive,Good,Gleditsia triacanthos var. inermis,honeylocust,None,None,NoDamage,Volunteer,None,No,No,No,No,No,No,No,No,No,2438 HOFFMAN STREET,10458,Bronx,206,2,Bronx,15,78,34,BX06,Belmont,2038900,New York,40.85705393,-73.88745706,1015382.47512,251545.404767
09/02/2015,197897,210476,POINT (-73.96487681570375 40.60961592154829),2,0,OnCurb,Alive,Good,Tilia americana,American linden,None,None,Damage,TreesCount Staff,WiresRope,No,No,No,Yes,No,No,No,No,No,810 AVENUE P,11223,Brooklyn,315,3,Brooklyn,44,45,22,BK25,Homecrest,3042000,New York,40.60961592,-73.96487682,994002.188817,161377.863646
09/03/2015,199051,107043,POINT (-73.9821229383017 40.76996827663165),4,0,OnCurb,Alive,Good,Malus,crab apple,None,None,NoDamage,TreesCount Staff,None,No,No,No,No,No,No,No,No,No,1870 BROADWAY,10023,New York,107,1,Manhattan,3,75,27,MN14,Lincoln Square,1014500,New York,40.76996828,-73.98212294,989201.764035,219797.488932
09/03/2015,200406,408850,POINT (-74.1625358567237 40.59837238915214),4,0,OnCurb,Alive,Good,Gleditsia triacanthos var. inermis,honeylocust,None,None,Damage,TreesCount Staff,None,No,No,No,No,No,No,No,No,No,2024 RICHMOND AVENUE,10314,Staten Island,502,5,Staten Island,50,63,24,SI05,New Springville-Bloomfield-Travis,5027301,New York,40.59837239,-74.16253586,939113.24807,157321.475433
08/30/2015,189459,219493,POINT (-73.96835284586766 40.69543462276076),4,0,OnCurb,Alive,Good,Gleditsia triacanthos var. inermis,honeylocust,1or2,Helpful,Damage,Volunteer,WiresRope,No,No,No,Yes,No,No,No,No,No,71 WAVERLY AVENUE,11205,Brooklyn,302,3,Brooklyn,35,50,25,BK69,Clinton Hill,3019100,New York,40.69543462,-73.96835285,993025.749825,192643.62198
08/30/2015,189460,219493,POINT (-73.96832202873222 40.69528271580404),4,0,OnCurb,Alive,Good,Gleditsia triacanthos var. inermis,honeylocust,1or2,Helpful,NoDamage,Volunteer,None,No,No,No,No,No,No,No,No,No,77 WAVERLY AVENUE,11205,Brooklyn,302,3,Brooklyn,35,50,25,BK69,Clinton Hill,3019100,New York,40.69528272,-73.96832203,993034.315425,192588.280884
08/30/2015,189709,223525,POINT (-73.97337630074402 40.67530269357513),13,0,OnCurb,Alive,Good,Gleditsia triacanthos var. inermis,honeylocust,3or4,Helpful,NoDamage,Volunteer,BranchOther,No,No,No,No,No,No,No,No,Yes,209 LINCOLN PLACE,11217,Brooklyn,306,3,Brooklyn,39,52,21,BK37,Park Slope-Gowanus,3015900,New York,40.67530269,-73.9733763,991634.976032,185308.511979
09/08/2015,208761,107164,POINT (-73.96064456272003 40.7630799218316),14,0,OnCurb,Alive,Good,Gleditsia triacanthos var. inermis,honeylocust,1or2,Harmful,NoDamage,Volunteer,RootOther,No,No,Yes,No,No,No,No,No,No,327 EAST 64 STREET,10065,New York,108,1,Manhattan,5,76,28,MN31,Lenox Hill-Roosevelt Island,1011000,New York,40.76307992,-73.96064456,995152.18258,217289.777084
08/30/2015,190395,107488,POINT (-73.96012716653067 40.769639050423706),9,0,OnCurb,Alive,Good,Gleditsia triacanthos var. inermis,honeylocust,3or4,Harmful,NoDamage,Volunteer,BranchOther,No,No,No,No,No,No,No,No,Yes,203 EAST 72 STREET,10021,New York,108,1,Manhattan,4,76,28,MN31,Lenox Hill-Roosevelt Island,1012600,New York,40.76963905,-73.96012717,995294.423109,219679.549208
08/29/2015,187234,218941,POINT (-73.97628863705064 40.6860602071579),18,0,OnCurb,Alive,Good,Ginkgo biloba,ginkgo,None,None,Damage,Volunteer,Stones,Yes,No,No,No,No,No,No,No,No,125 FT GREENE PLACE,11217,Brooklyn,302,3,Brooklyn,35,57,25,BK68,Fort Greene,3003500,New York,40.68606021,-73.97628864,990826.080996,189227.552369
09/06/2015,205785,106342,POINT (-73.98337930093409 40.780171873919386),10,0,OnCurb,Alive,Good,Ginkgo biloba,ginkgo,1or2,Harmful,NoDamage,Volunteer,None,No,No,No,No,No,No,No,No,No,268 WEST 73 STREET,10023,New York,107,1,Manhattan,6,67,29,MN14,Lincoln Square,1015900,New York,40.78017187,-73.9833793,988853.059023,223514.933269
09/04/2015,201410,102977,POINT (-73.99033070458827 40.72311463323263),3,0,OnCurb,Alive,Good,Ginkgo biloba,ginkgo,None,None,NoDamage,NYC Parks Staff,None,No,No,No,No,No,No,No,No,No,212 FORSYTH STREET,10002,New York,103,1,Manhattan,1,65,26,MN27,Chinatown,1003601,New York,40.72311463,-73.9903307,986930.180651,202726.847877
09/08/2015,208760,107164,POINT (-73.96045231030908 40.7629982865116),17,0,OnCurb,Alive,Good,Ginkgo biloba,ginkgo,1or2,Harmful,NoDamage,Volunteer,RootOther,No,No,Yes,No,No,No,No,No,No,340 EAST 64 STREET,10065,New York,108,1,Manhattan,5,76,28,MN31,Lenox Hill-Roosevelt Island,1011000,New York,40.76299829,-73.96045231,995205.453471,217260.05864
09/08/2015,208763,107164,POINT (-73.96077693381598 40.76313613142997),14,0,OnCurb,Alive,Good,Gleditsia triacanthos var. inermis,honeylocust,1or2,Harmful,NoDamage,Volunteer,RootOther,No,No,Yes,No,No,No,No,No,No,327 EAST 64 STREET,10065,New York,108,1,Manhattan,5,76,28,MN31,Lenox Hill-Roosevelt Island,1011000,New York,40.76313613,-73.96077693,995115.504176,217310.239642
08/30/2015,189626,223423,POINT (-73.97505728387982 40.67490333891054),11,0,OnCurb,Alive,Good,Ginkgo biloba,ginkgo,None,None,Damage,Volunteer,None,No,No,No,No,No,No,No,No,No,75 7 AVENUE,11217,Brooklyn,306,3,Brooklyn,39,52,21,BK37,Park Slope-Gowanus,3015900,New York,40.67490334,-73.97505728,991168.740416,185162.878412
08/30/2015,190394,107488,POINT (-73.96003887726967 40.76960162372808),11,0,OnCurb,Alive,Good,Gleditsia triacanthos var. inermis,honeylocust,3or4,Harmful,Damage,Volunteer,BranchOther,No,No,No,No,No,No,No,No,Yes,203 EAST 72 STREET,10021,New York,108,1,Manhattan,4,76,28,MN31,Lenox Hill-Roosevelt Island,1012600,New York,40.76960162,-73.96003888,995318.884674,219665.924563
09/03/2015,200471,104861,POINT (-73.98285451731736 40.7575704444091),4,0,OnCurb,Alive,Good,Ginkgo biloba,ginkgo,1or2,None,NoDamage,Volunteer,MetalGrates,No,Yes,No,No,No,No,No,No,No,115 WEST 46 STREET,10036,New York,105,1,Manhattan,4,75,27,MN17,Midtown-Midtown South,1011900,New York,40.75757044,-73.98285452,989000.008205,215280.509777
08/27/2015,179834,102993,POINT (-73.9911001715579 40.72206572518783),19,0,OffsetFromCurb,Alive,Good,Ginkgo biloba,ginkgo,None,None,NoDamage,TreesCount Staff,None,No,No,No,No,No,No,No,No,No,190 FORSYTH STREET,10002,New York,103,1,Manhattan,1,65,26,MN27,Chinatown,1003601,New York,40.72206573,-73.99110017,986716.935015,202344.675741
08/27/2015,180251,106093,POINT (-73.98370686371007 40.76964206462148),11,0,OnCurb,Alive,Good,Gleditsia triacanthos var. inermis,honeylocust,1or2,Helpful,Damage,Volunteer,None,No,No,No,No,No,No,No,No,No,31 WEST 60 STREET,10023,New York,107,1,Manhattan,3,67,27,MN14,Lincoln Square,1014500,New York,40.76964206,-73.98370686,988763.054938,219678.553475
09/08/2015,209063,415850,POINT (-74.10593025322113 40.559182784116466),11,0,OnCurb,Alive,Fair,Gleditsia triacanthos var. inermis,honeylocust,None,None,NoDamage,TreesCount Staff,None,No,No,No,No,No,No,No,No,No,286 ROMA AVENUE,10306,Staten Island,503,5,Staten Island,50,64,24,SI25,Oakwood-Oakwood Beach,5012806,New York,40.55918278,-74.10593025,954815.538188,143019.648722
09/04/2015,201590,338263,POINT (-73.82864618675484 40.582117378332185),2,0,OffsetFromCurb,Alive,Fair,Gleditsia triacanthos var. inermis,honeylocust,1or2,None,NoDamage,TreesCount Staff,None,No,No,No,No,No,No,No,No,No,2-008 BEACH 108 STREET,11694,Rockaway Park,414,4,Queens,32,23,15,QN10,Breezy Point-Belle Harbor-Rockaway Park-Broad Chan,4093800,New York,40.58211738,-73.82864619,1031847.10952,151404.042386
08/29/2015,187054,106107,POINT (-73.98179160516962 40.77046434714469),9,0,OnCurb,Alive,Good,Gleditsia triacanthos var. inermis,honeylocust,1or2,Unsure,NoDamage,NYC Parks Staff,"MetalGrates,BranchOther",No,Yes,No,No,No,No,No,No,Yes,1880 BROADWAY,10023,New York,107,1,Manhattan,6,75,27,MN14,Lincoln Square,1014900,New York,40.77046435,-73.98179161,989293.502368,219978.242836
09/04/2015,201811,338314,POINT (-73.82538141635906 40.58306474243835),2,0,OffsetFromCurb,Alive,Fair,Gleditsia triacanthos var. inermis,honeylocust,1or2,None,NoDamage,TreesCount Staff,None,No,No,No,No,No,No,No,No,No,104-008 ROCKAWAY BEACH BOULEVARD,11694,Rockaway Park,414,4,Queens,32,23,15,QN10,Breezy Point-Belle Harbor-Rockaway Park-Broad Chan,4093800,New York,40.58306474,-73.82538142,1032753.27864,151750.980997
09/08/2015,208863,219320,POINT (-73.96062866815528 40.69153074391603),4,0,OnCurb,Alive,Good,Gleditsia triacanthos var. inermis,honeylocust,None,None,NoDamage,Volunteer,RootOther,No,No,Yes,No,No,No,No,No,No,275 CLASSON AVENUE,11205,Brooklyn,302,3,Brooklyn,35,57,25,BK69,Clinton Hill,3019300,New York,40.69153074,-73.96062867,995168.30197,191222.192409
09/01/2015,195995,104413,POINT (-73.98598250883435 40.744866526894505),3,0,OnCurb,Alive,Fair,Gleditsia triacanthos var. inermis,honeylocust,None,None,NoDamage,Volunteer,"Stones,BranchOther",Yes,No,No,No,No,No,No,No,Yes,3 EAST 29 STREET,10016,New York,105,1,Manhattan,4,75,28,MN17,Midtown-Midtown South,1007400,New York,40.74486653,-73.98598251,988134.165776,210651.90847
08/30/2015,190386,107488,POINT (-73.9590118876348 40.76916627113935),10,0,OnCurb,Alive,Good,Gleditsia triacanthos var. inermis,honeylocust,3or4,Helpful,NoDamage,Volunteer,"RootOther,TrunkOther,BranchOther",No,No,Yes,No,No,Yes,No,No,Yes,239 EAST 72 STREET,10021,New York,108,1,Manhattan,4,76,28,MN31,Lenox Hill-Roosevelt Island,1012600,New York,40.76916627,-73.95901189,995603.4261,219507.442597
09/08/2015,208819,107238,POINT (-73.9594592284515 40.764324420146224),12,0,OnCurb,Alive,Good,Gleditsia triacanthos var. inermis,honeylocust,3or4,Harmful,NoDamage,Volunteer,None,No,No,No,No,No,No,No,No,No,333 EAST 66 STREET,10065,New York,108,1,Manhattan,5,76,28,MN31,Lenox Hill-Roosevelt Island,1011800,New York,40.76432442,-73.95945923,995480.332186,217743.338513
09/03/2015,200697,215932,POINT (-73.94759301402212 40.72286387838295),10,0,OnCurb,Alive,Good,Tilia americana,American linden,None,None,NoDamage,Volunteer,None,No,No,No,No,No,No,No,No,No,246 DRIGGS AVENUE,11222,Brooklyn,301,3,Brooklyn,33,50,26,BK76,Greenpoint,3057100,New York,40.72286388,-73.94759301,998776.467982,202639.687618
08/30/2015,189599,223168,POINT (-73.97268165254152 40.669723765221214),3,0,OnCurb,Alive,Good,Tilia americana,American linden,1or2,Helpful,NoDamage,Volunteer,None,No,No,No,No,No,No,No,No,No,44 PROSPECT PARK WEST,11215,Brooklyn,306,3,Brooklyn,39,52,21,BK37,Park Slope-Gowanus,3016500,New York,40.66972377,-73.97268165,991828.293887,183276.008826
08/29/2015,187229,104671,POINT (-73.97971636953785 40.75235027872372),4,0,OnCurb,Alive,Fair,Gleditsia triacanthos var. inermis,honeylocust,3or4,Helpful,NoDamage,NYC Parks Staff,"RootOther,TrunkOther,BranchOther",No,No,Yes,No,No,Yes,No,No,Yes,301 MADISON AVENUE,10017,New York,105,1,Manhattan,4,73,27,MN20,Murray Hill-Kips Bay,1008200,New York,40.75235028,-73.97971637,989869.845376,213378.819683
08/31/2015,192892,210568,POINT (-73.94855770955621 40.60963577616657),8,0,OnCurb,Alive,Good,Ginkgo biloba,ginkgo,None,None,NoDamage,TreesCount Staff,BranchLights,No,No,No,No,No,No,Yes,No,No,3792 BEDFORD AVENUE,11229,Brooklyn,315,3,Brooklyn,48,41,17,BK44,Madison,3054800,New York,40.60963578,-73.94855771,998533.293928,161387.336068
09/06/2015,206381,105376,POINT (-73.98054733919605 40.738155307914035),10,0,OnCurb,Alive,Good,Ginkgo biloba,ginkgo,1or2,Harmful,NoDamage,Volunteer,RootOther,No,No,Yes,No,No,No,No,No,No,400 2 AVENUE,10010,New York,106,1,Manhattan,2,74,27,MN21,Gramercy,1006400,New York,40.73815531,-73.98054734,989640.762829,208207.085932
08/29/2015,187061,106107,POINT (-73.98079174857948 40.770050688083366),6,0,OnCurb,Alive,Good,Gleditsia triacanthos var. inermis,honeylocust,1or2,Unsure,NoDamage,NYC Parks Staff,"MetalGrates,TrunkOther",No,Yes,No,No,No,Yes,No,No,No,25 CENTRAL PARK WEST,10023,New York,107,1,Manhattan,6,75,27,MN14,Lincoln Square,1014900,New York,40.77005069,-73.98079175,989570.483442,219827.592219
08/30/2015,189365,223743,POINT (-73.97265211582584 40.676725388466856),8,0,OnCurb,Alive,Good,Gleditsia triacanthos var. inermis,honeylocust,3or4,Helpful,Damage,Volunteer,None,No,No,No,No,No,No,No,No,No,200 STERLING PLACE,11217,Brooklyn,306,3,Brooklyn,39,52,20,BK64,Prospect Heights,3016100,New York,40.67672539,-73.97265212,991835.691182,185826.902346
08/20/2015,161340,230864,POINT (-73.9646957314448 40.64872085303549),14,0,OnCurb,Alive,Good,Gleditsia triacanthos var. inermis,honeylocust,None,None,NoDamage,TreesCount Staff,None,No,No,No,No,No,No,No,No,No,1600 CHURCH AVENUE,11226,Brooklyn,314,3,Brooklyn,40,42,21,BK42,Flatbush,3051200,New York,40.64872085,-73.96469573,994046.72613,175624.853853
09/05/2015,204224,217797,POINT (-73.93895705650718 40.71308988154833),13,0,OnCurb,Alive,Good,Gleditsia triacanthos var. inermis,honeylocust,None,None,Damage,Volunteer,Stones,Yes,No,No,No,No,No,No,No,No,296 POWERS STREET,11211,Brooklyn,301,3,Brooklyn,34,53,18,BK90,East Williamsburg,3048100,New York,40.71308988,-73.93895706,1001172.71319,199080.272493
08/30/2015,190435,106099,POINT (-73.9861634988138 40.770558620044575),11,0,OnCurb,Alive,Good,Gleditsia triacanthos var. inermis,honeylocust,None,None,NoDamage,Volunteer,None,No,No,No,No,No,No,No,No,No,132 WEST 60 STREET,10023,New York,107,1,Manhattan,3,67,27,MN14,Lincoln Square,1014500,New York,40.77055862,-73.9861635,988082.535958,220012.368096
08/31/2015,193092,225564,POINT (-73.98577304556501 40.66116852618676),12,0,OnCurb,Alive,Good,Gleditsia triacanthos var. inermis,honeylocust,None,None,Damage,Volunteer,None,No,No,No,No,No,No,No,No,No,367 PROSPECT AVENUE,11215,Brooklyn,307,3,Brooklyn,38,44,21,BK37,Park Slope-Gowanus,3014900,New York,40.66116853,-73.98577305,988197.159417,180158.232909
09/08/2015,209331,222706,POINT (-73.91521777074148 40.70233781917689),12,0,OnCurb,Alive,Good,Gleditsia triacanthos var. inermis,honeylocust,None,None,NoDamage,Volunteer,None,No,No,No,No,No,No,No,No,No,1488 GREENE AVENUE,11237,Brooklyn,304,3,Brooklyn,37,53,18,BK77,Bushwick North,3044100,New York,40.70233782,-73.91521777,1007757.65868,195168.452233
09/03/2015,200439,102449,POINT (-73.99769318960969 40.712695582657275),6,0,OnCurb,Alive,Good,Ginkgo biloba,ginkgo,None,None,Damage,NYC Parks Staff,"Stones,TrunkOther",Yes,No,No,No,No,Yes,No,No,No,8 HENRY STREET,10038,New York,103,1,Manhattan,1,65,26,MN27,Chinatown,1002700,New York,40.71269558,-73.99769319,984889.512489,198930.729485
08/27/2015,180252,106093,POINT (-73.98364215184338 40.769614760294),8,0,OnCurb,Alive,Fair,Gleditsia triacanthos var. inermis,honeylocust,1or2,Helpful,Damage,Volunteer,None,No,No,No,No,No,No,No,No,No,31 WEST 60 STREET,10023,New York,107,1,Manhattan,3,67,27,MN14,Lincoln Square,1014500,New York,40.76961476,-73.98364215,988780.981412,219668.608941
08/27/2015,180434,229835,POINT (-73.95847825842672 40.6203764506935),6,0,OnCurb,Alive,Good,Ginkgo biloba,ginkgo,None,None,Damage,Volunteer,None,No,No,No,No,No,No,No,No,No,1600 AVENUE L,11230,Brooklyn,314,3,Brooklyn,44,48,17,BK43,Midwood,3053800,New York,40.62037645,-73.95847826,995776.932971,165298.982772
09/08/2015,209045,225648,POINT (-73.99457015014323 40.66357180023084),6,0,OnCurb,Alive,Good,Gleditsia triacanthos var. inermis,honeylocust,None,None,NoDamage,Volunteer,None,No,No,No,No,No,No,No,No,No,639 4 AVENUE,11232,Brooklyn,307,3,Brooklyn,38,51,20,BK37,Park Slope-Gowanus,3014300,New York,40.6635718,-73.99457015,985756.415939,181033.53923
09/04/2015,201593,338263,POINT (-73.82831042299202 40.58221487046158),2,0,OffsetFromCurb,Alive,Good,Gleditsia triacanthos var. inermis,honeylocust,1or2,None,NoDamage,TreesCount Staff,None,No,No,No,No,No,No,No,No,No,2-008 BEACH 108 STREET,11694,Rockaway Park,414,4,Queens,32,23,15,QN10,Breezy Point-Belle Harbor-Rockaway Park-Broad Chan,4093800,New York,40.58221487,-73.82831042,1031940.3052,151439.743758
08/31/2015,193069,210437,POINT (-73.9457410798543 40.60955151419967),13,0,OnCurb,Alive,Good,Gleditsia triacanthos var. inermis,honeylocust,None,None,NoDamage,TreesCount Staff,"Stones,BranchLights",Yes,No,No,No,No,No,Yes,No,No,2724 QUENTIN ROAD,11229,Brooklyn,315,3,Brooklyn,48,41,17,BK44,Madison,3054800,New York,40.60955151,-73.94574108,999315.368807,161357.109094
08/30/2015,189243,223527,POINT (-73.97278999947494 40.67586568888086),13,0,OnCurb,Alive,Good,Tilia americana,American linden,None,None,Damage,Volunteer,"Stones,RootOther,TrunkOther",Yes,No,Yes,No,No,Yes,No,No,No,214 ST JOHNS PLACE,11217,Brooklyn,306,3,Brooklyn,39,52,21,BK37,Park Slope-Gowanus,3015900,New York,40.67586569,-73.97279,991797.542636,185513.677251
08/27/2015,180516,344567,POINT (-73.89270306926588 40.70099719320924),9,0,OnCurb,Alive,Poor,Ginkgo biloba,ginkgo,None,None,Damage,Volunteer,None,No,No,No,No,No,No,No,No,No,62-015 MYRTLE AVENUE,11385,Ridgewood,405,4,Queens,30,37,15,QN19,Glendale,4057700,New York,40.70099719,-73.89270307,1014000.92933,194686.86691
09/08/2015,208860,219320,POINT (-73.96056700656774 40.691246946793136),17,0,OnCurb,Alive,Good,Gleditsia triacanthos var. inermis,honeylocust,None,None,Damage,Volunteer,"RootOther,TrunkOther",No,No,Yes,No,No,Yes,No,No,No,283 CLASSON AVENUE,11205,Brooklyn,302,3,Brooklyn,35,57,25,BK69,Clinton Hill,3019300,New York,40.69124695,-73.96056701,995185.448262,191118.804492
09/05/2015,204033,106892,POINT (-73.96897588563444 40.79880048648503),7,0,OnCurb,Alive,Good,Gleditsia triacanthos var. inermis,honeylocust,1or2,Harmful,NoDamage,Volunteer,None,No,No,No,No,No,No,No,No,No,2681 BROADWAY,10025,New York,107,1,Manhattan,6,69,31,MN12,Upper West Side,1019100,New York,40.79880049,-73.96897589,992839.643242,230303.061425
09/07/2015,208410,345647,POINT (-73.91480707343258 40.70871281397412),8,0,OnCurb,Alive,Good,Ginkgo biloba,ginkgo,None,None,NoDamage,Volunteer,"Stones,TrunkOther,BranchLights,BranchOther",Yes,No,No,No,No,Yes,Yes,No,Yes,315 ONDERDONK AVENUE,11385,Ridgewood,405,4,Queens,34,37,12,QN20,Ridgewood,4053900,New York,40.70871281,-73.91480707,1007869.27427,197491.163466
08/24/2015,170023,100449,POINT (-74.01226648426427 40.71007644255111),2,0,OffsetFromCurb,Alive,Good,Gleditsia triacanthos var. inermis,honeylocust,None,None,NoDamage,TreesCount Staff,None,No,No,No,No,No,No,No,No,No,120 LIBERTY STREET,10048,New York,101,1,Manhattan,1,65,26,MN25,Battery Park City-Lower Manhattan,1001300,New York,40.71007644,-74.01226648,980849.253181,197976.727128
08/30/2015,189583,219478,POINT (-73.97068954436763 40.69577266456954),4,0,OnCurb,Alive,Good,Ginkgo biloba,ginkgo,None,None,NoDamage,Volunteer,None,No,No,No,No,No,No,No,No,No,68 VANDERBILT AVENUE,11205,Brooklyn,302,3,Brooklyn,35,50,25,BK68,Fort Greene,3018700,New York,40.69577266,-73.97068954,992377.742591,192766.555134
08/30/2015,189500,223361,POINT (-73.97235367387583 40.67249782707868),15,0,OnCurb,Alive,Good,Gleditsia triacanthos var. inermis,honeylocust,3or4,Helpful,NoDamage,Volunteer,None,No,No,No,No,No,No,No,No,No,925 PRESIDENT STREET,11215,Brooklyn,306,3,Brooklyn,39,52,21,BK37,Park Slope-Gowanus,3016500,New York,40.67249783,-73.97235367,991918.958403,184286.706936
08/30/2015,189902,223586,POINT (-73.9737185112562 40.67688867789059),12,0,OnCurb,Alive,Good,Ginkgo biloba,ginkgo,1or2,Harmful,Damage,Volunteer,None,No,No,No,No,No,No,No,No,No,23 7 AVENUE,11217,Brooklyn,306,3,Brooklyn,39,52,21,BK37,Park Slope-Gowanus,3015900,New York,40.67688868,-73.97371851,991539.879109,185886.302818
08/29/2015,187294,109688,POINT (-73.9525171573011 40.80278452172171),9,0,OnCurb,Alive,Good,Gleditsia triacanthos var. inermis,honeylocust,None,None,NoDamage,Volunteer,"Stones,TrunkOther,BranchOther",Yes,No,No,No,No,Yes,No,No,Yes,110 ST NICHOLAS AVENUE,10026,New York,110,1,Manhattan,9,70,30,MN11,Central Harlem South,1021800,New York,40.80278452,-73.95251716,997395.782424,231756.626759
08/31/2015,192893,210568,POINT (-73.9485315241513 40.609498885165344),10,0,OnCurb,Alive,Good,Ginkgo biloba,ginkgo,None,None,NoDamage,TreesCount Staff,BranchLights,No,No,No,No,No,No,Yes,No,No,2423 QUENTIN ROAD,11229,Brooklyn,315,3,Brooklyn,48,41,17,BK44,Madison,3054800,New York,40.60949889,-73.94853152,998540.593782,161337.467401
09/06/2015,206382,105376,POINT (-73.98048351591714 40.73824263013364),11,0,OnCurb,Alive,Good,Gleditsia triacanthos var. inermis,honeylocust,1or2,Harmful,NoDamage,Volunteer,RootOther,No,No,Yes,No,No,No,No,No,No,400 2 AVENUE,10010,New York,106,1,Manhattan,2,74,27,MN21,Gramercy,1006400,New York,40.73824263,-73.98048352,989658.442583,208238.90411
08/30/2015,189249,223527,POINT (-73.97213743123869 40.67561104810398),11,0,OnCurb,Alive,Good,Tilia americana,American linden,None,None,Damage,Volunteer,"Stones,TrunkOther",Yes,No,No,No,No,Yes,No,No,No,238 ST JOHNS PLACE,11217,Brooklyn,306,3,Brooklyn,39,52,21,BK37,Park Slope-Gowanus,3015900,New York,40.67561105,-73.97213743,991978.5823,185420.961229
08/30/2015,189251,223527,POINT (-73.97187884501805 40.67551014283506),7,0,OnCurb,Alive,Good,Ginkgo biloba,ginkgo,1or2,Unsure,NoDamage,Volunteer,RootOther,No,No,Yes,No,No,No,No,No,No,242 ST JOHNS PLACE,11217,Brooklyn,306,3,Brooklyn,39,52,21,BK37,Park Slope-Gowanus,3015900,New York,40.67551014,-73.97187885,992050.32133,185384.221473
09/04/2015,201817,338314,POINT (-73.82405773320552 40.583448808962444),2,0,OffsetFromCurb,Alive,Poor,Tilia americana,American linden,None,None,NoDamage,TreesCount Staff,None,No,No,No,No,No,No,No,No,No,103-04 ROCKAWAY BEACH BOULEVARD,11694,Rockaway Park,414,4,Queens,32,23,15,QN10,Breezy Point-Belle Harbor-Rockaway Park-Broad Chan,4093800,New York,40.58344881,-73.82405773,1033120.67259,151891.641477
09/04/2015,201819,338314,POINT (-73.82387098920358 40.58350299022843),2,0,OffsetFromCurb,Alive,Poor,Tilia americana,American linden,None,None,NoDamage,TreesCount Staff,None,No,No,No,No,No,No,No,No,No,102-20 ROCKAWAY BEACH BOULEVARD,11694,Rockaway Park,414,4,Queens,32,23,15,QN10,Breezy Point-Belle Harbor-Rockaway Park-Broad Chan,4093800,New York,40.58350299,-73.82387099,1033172.50385,151911.485269
09/05/2015,204025,218365,POINT (-73.93663138986484 40.71763375446986),3,0,OnCurb,Alive,Good,Gleditsia triacanthos var. inermis,honeylocust,1or2,None,NoDamage,Volunteer,None,No,No,No,No,No,No,No,No,No,390 MORGAN AVENUE,11211,Brooklyn,301,3,Brooklyn,34,50,18,BK90,East Williamsburg,3044900,New York,40.71763375,-73.93663139,1001816.2516,200736.201268
09/01/2015,193395,340964,POINT (-73.88841975636886 40.75182476724454),10,0,OnCurb,Alive,Good,Gleditsia triacanthos var. inermis,honeylocust,1or2,None,NoDamage,Volunteer,None,No,No,No,No,No,No,No,No,No,34-041 78 STREET,11372,Jackson Heights,403,4,Queens,25,34,13,QN28,Jackson Heights,4028500,New York,40.75182477,-73.88841976,1015165.00312,213206.397784
09/08/2015,210541,216081,POINT (-73.94694311762747 40.72566318601352),14,0,OnCurb,Alive,Good,Tilia americana,American linden,None,None,Damage,Volunteer,None,No,No,No,No,No,No,No,No,No,93 DIAMOND STREET,11222,Brooklyn,301,3,Brooklyn,33,50,26,BK76,Greenpoint,3057100,New York,40.72566319,-73.94694312,998955.99223,203659.670158
08/29/2015,184749,505305,POINT (-73.89377521412185 40.85153000922133),3,0,OnCurb,Alive,Fair,Platanus x acerifolia,London planetree,None,None,NoDamage,Volunteer,None,No,No,No,No,No,No,No,No,No,546 EAST 181 STREET,10457,Bronx,206,2,Bronx,15,86,33,BX17,East Tremont,2037504,New York,40.85153001,-73.89377521,1013637.142,249530.646658
08/29/2015,185678,504449,POINT (-73.90218779990661 40.85811920580536),2,0,OnCurb,Alive,Good,Ulmus americana,American elm,1or2,Helpful,NoDamage,Volunteer,None,No,No,No,No,No,No,No,No,No,70 EAST 183 STREET,10453,Bronx,205,2,Bronx,14,86,33,BX40,Fordham South,2023900,New York,40.85811921,-73.9021878,1011307.11615,251928.631363
08/28/2015,182059,303510,POINT (-73.92783662495987 40.742227975764685),22,0,OnCurb,Alive,Fair,Platanus x acerifolia,London planetree,None,None,Damage,Volunteer,Stones,Yes,No,No,No,No,No,No,No,No,37-011 47 AVENUE,11101,Long Island City,402,4,Queens,26,37,12,QN31,Hunters Point-Sunnyside-West Maspeth,4017900,New York,40.74222798,-73.92783662,1004246.84385,209698.526191
08/28/2015,182170,228523,POINT (-73.99982555437511 40.63461036089849),27,0,OnCurb,Alive,Good,Platanus x acerifolia,London planetree,None,None,NoDamage,TreesCount Staff,Stones,Yes,No,No,No,No,No,No,No,No,5414 11 AVENUE,11219,Brooklyn,312,3,Brooklyn,44,48,17,BK88,Borough Park,3021800,New York,40.63461036,-73.99982555,984298.41787,170482.0436
08/20/2015,161371,339703,POINT (-73.7701119046339 40.610953039810774),25,0,OnCurb,Alive,Good,Platanus x acerifolia,London planetree,None,None,Damage,TreesCount Staff,"Stones,BranchLights",Yes,No,No,No,No,No,Yes,No,No,32-024 ANCHOR DRIVE,11691,Far Rockaway,414,4,Queens,31,23,10,QN15,Far Rockaway-Bayswater,4100801,New York,40.61095304,-73.7701119,1048078.62889,161946.810671
09/01/2015,195488,413493,POINT (-74.16176843708956 40.55832020616527),10,0,OnCurb,Alive,Fair,Acer ginnala,Amur maple,None,None,Damage,TreesCount Staff,"RootOther,BranchLights",No,No,Yes,No,No,No,Yes,No,No,973 ARMSTRONG AVENUE,10308,Staten Island,503,5,Staten Island,51,62,24,SI54,Great Kills,5014607,New York,40.55832021,-74.16176844,939299.415349,142729.099106
08/29/2015,184924,504108,POINT (-73.90281035245803 40.84983560625613),3,0,OnCurb,Alive,Poor,Ulmus americana,American elm,None,None,NoDamage,Volunteer,RootOther,No,No,Yes,No,No,No,No,No,No,1936 ANTHONY AVENUE,10457,Bronx,205,2,Bronx,15,86,33,BX41,Mount Hope,2038100,New York,40.84983561,-73.90281035,1011138.25231,248910.409381
08/31/2015,192294,327484,POINT (-73.7505809837239 40.69414596649315),37,0,OnCurb,Alive,Good,Platanus x acerifolia,London planetree,None,None,Damage,TreesCount Staff,None,No,No,No,No,No,No,No,No,No,117-024 201 PLACE,11412,Saint Albans,412,4,Queens,27,33,14,QN08,St. Albans,4038400,New York,40.69414597,-73.75058098,1053415.09066,192271.009537
08/30/2015,188761,302394,POINT (-73.91459447204626 40.783437262155715),17,0,OnCurb,Alive,Good,Platanus x acerifolia,London planetree,None,None,NoDamage,Volunteer,None,No,No,No,No,No,No,No,No,No,20-056 20 STREET,11105,Astoria,401,4,Queens,22,36,13,QN72,Steinway,4010500,New York,40.78343726,-73.91459447,1007901.67349,224715.718269
08/30/2015,189940,302377,POINT (-73.91206577688445 40.78183619303114),13,0,OnCurb,Alive,Good,Platanus x acerifolia,London planetree,None,None,NoDamage,Volunteer,None,No,No,No,No,No,No,No,No,No,20-044 24 STREET,11105,Astoria,401,4,Queens,22,36,13,QN72,Steinway,4010500,New York,40.78183619,-73.91206578,1008602.53987,224133.087545
